city,city_country,station_id,latitude,longitude,elevation,annual_avg_temp_c,annual_min_temp_c,annual_max_temp_c,annual_extreme_min_c,annual_extreme_max_c,annual_precip_mm,annual_avg_pres_hpa,annual_total_sun_h,annual_avg_daily_sun_h,avg_comfort_index,best_comfort_index,best_comfort_month,wet_month_count,cold_month_count,hot_month_count,years_of_data,data_coverage_pct
Aarhus,Denmark,06070,56.3,10.6167,23,9.38,-7.6,26.3,-18.4,32.2,1262.7,1013.92,0.0,,6.17,9.58,7,9,90,0,14,100.0
Abu Dhabi,United Arab Emirates,41216,24.4333,54.4667,5,29.1,15.7,44.0,12.0,48.0,69.3,1008.61,0.0,,7.74,10.0,12,9,0,96,14,100.0
Acapulco,Mexico,76805,16.8333,-99.9333,13,27.98,18.7,36.3,14.6,38.8,18597.6,1011.78,40486.0,8.82,9.38,10.0,1,83,0,86,14,100.0
Accra,Ghana,65472,5.6,-0.1667,68,27.9,20.9,34.0,2.9,39.5,8755.5,1011.74,8647.0,6.63,8.45,10.0,1,61,0,87,14,100.0
Ajaccio,France,07761,41.9167,8.8,6,16.25,1.2,31.6,-4.0,40.1,9272.0,1015.74,39901.0,7.84,9.03,10.0,5,82,23,0,14,100.0
Akureyri,Iceland,04063,65.6833,-18.0833,23,4.43,-8.2,19.5,-23.0,27.5,8768.0,1006.58,15308.0,3.01,5.37,9.99,7,83,137,0,14,100.0
Alexandria,Egypt,62318,31.2,29.95,-2,21.62,7.7,33.5,0.7,44.5,3398.8,1014.52,6043.03,8.61,8.74,10.0,11,76,0,21,14,100.0
Algarve,Portugal,08554,37.0167,-7.9667,7,18.43,6.4,31.9,0.6,39.9,1541.5,1018.13,1106.0,9.15,8.58,10.0,6,19,0,0,14,100.0
Almaty,Kazakhstan,36870,43.2333,76.9333,847,11.02,-13.3,33.8,-31.0,40.7,9110.5,1018.09,27398.0,5.76,7.2,10.0,5,83,75,0,14,100.0
Amritsar,India,42071,31.6333,74.8667,229,23.31,1.4,42.8,-2.0,47.6,10661.0,1008.21,27587.0,6.18,8.94,10.0,3,83,2,69,14,100.0
Amsterdam,Netherlands,06240,52.3,4.7667,-4,11.0,-3.4,25.6,-17.8,36.1,1686.5,1015.17,0.0,,6.65,9.58,7,10,78,0,14,100.0
Anchorage,United States,PALH0,61.18,-149.9719,22,3.73,-19.4,22.9,-25.6,31.7,0.0,1008.84,0.0,,4.53,8.98,7,0,108,0,14,100.0
Ankara,Turkey,17130,39.95,32.8833,891,13.4,-6.3,35.2,-16.0,41.0,6139.5,1014.53,28187.0,6.13,7.96,10.0,5,83,67,2,14,100.0
Annecy,France,LFLP0,45.9347,6.1053,463,10.92,-6.1,30.2,-14.7,38.0,113.3,1018.19,0.0,,6.65,10.0,7,0,75,0,14,98.7
Antalya,Turkey,17300,36.7,30.7333,50,19.93,4.2,36.8,-1.8,44.8,12600.0,1012.74,13663.0,6.58,8.4,10.0,4,84,5,27,14,100.0
Antananarivo,Madagascar,67085,-18.8667,47.5,1310,18.32,9.6,29.3,5.1,32.9,5588.5,1018.21,0.0,,8.36,9.85,1,25,0,0,7,94.3
Antigua,Guatemala,78641,14.5833,-90.5167,1489,19.52,12.5,28.5,8.0,32.0,3066.5,1021.92,0.0,,9.16,10.0,5,10,0,0,14,100.0
Antofagasta,Chile,85442,-23.4333,-70.4333,135,16.59,9.6,25.7,6.1,30.3,98.5,1014.84,41449.0,8.17,9.84,10.0,1,51,0,0,14,100.0
Antwerp,Belgium,06450,51.2,4.4667,12,11.55,-2.9,27.5,-15.0,40.2,1487.0,1016.01,0.0,,6.82,9.94,7,9,72,0,14,97.0
Apia,Samoa,91762,-13.8,-171.7833,2,27.02,22.7,36.1,18.2,36.2,35273.0,1010.35,0.0,,7.38,8.89,1,68,0,3,14,94.9
Arequipa,Peru,84752,-16.3167,-71.55,2538,15.33,5.7,23.6,0.2,28.9,1480.4,1024.88,0.0,,7.95,9.43,5,70,0,0,14,100.0
Arica,Chile,85406,-18.3333,-70.3333,58,19.17,12.8,27.5,9.3,30.0,52.0,1014.48,30655.0,6.19,9.83,10.0,1,50,0,0,14,98.2
Ashgabat,Turkmenistan,38880,37.9667,58.3333,210,16.86,-5.8,40.9,-18.0,47.0,2962.5,1016.16,29785.0,6.55,8.29,10.0,5,77,55,36,14,100.0
Astana,Kazakhstan,35188,51.1333,71.3667,348,4.42,-24.7,31.7,-34.5,38.4,4957.5,1020.4,9470.0,6.48,5.09,10.0,5,84,96,0,14,100.0
Asturias,Spain,08015,43.35,-5.8667,335,13.69,2.3,25.3,-4.0,39.0,15131.3,1018.34,24968.0,5.06,8.34,10.0,7,83,39,0,14,100.0
Asunción,Paraguay,86218,-25.2667,-57.6333,101,23.23,9.4,37.2,-1.2,43.0,19919.5,1012.6,36836.0,7.53,9.83,10.0,8,84,0,18,14,100.0
Aswan,Egypt,62414,23.9667,32.7833,200,27.63,7.8,44.5,4.6,47.7,25.0,1011.36,14654.0,10.73,8.26,10.0,1,4,0,88,14,100.0
Atlanta,United States,KFTY0,33.7791,-84.5214,256,17.1,-4.2,33.4,-14.4,39.4,0.0,1017.99,0.0,,7.88,9.97,9,0,39,0,14,100.0
Auckland,New Zealand,93110,-37.0,174.8,7,16.09,6.9,26.4,0.9,29.8,15360.1,1016.68,0.0,,7.76,9.84,1,79,0,0,14,100.0
Austin,United States,72254,30.3167,-97.7667,201,21.57,2.9,40.5,-17.1,44.4,12629.0,1016.12,0.0,,7.75,9.92,10,83,6,47,14,100.0
Avarua,Cook Islands,91843,-21.2,-159.8167,7,24.75,18.0,31.6,11.9,34.9,21728.2,1014.0,5911.0,6.48,8.76,10.0,2,76,0,0,14,100.0
Ayers Rock,Australia,94462,-25.2,131.0,493,22.67,1.0,42.4,-3.5,47.1,3123.6,1015.02,0.0,,8.27,9.87,4,70,0,10,14,21.6
Azores,Portugal,08512,37.7333,-25.7,71,17.57,11.3,26.5,6.3,34.3,12980.0,1021.91,16526.0,6.09,8.93,10.0,7,84,0,0,14,100.0
Baku,Azerbaijan,37864,40.45,50.0667,-6,15.77,-1.4,35.0,-8.6,42.0,320.8,1016.19,0.0,,7.39,9.97,9,9,56,8,14,100.0
Baltimore,United States,KDMH0,39.2833,-76.6167,6,15.13,-6.8,35.1,-13.3,41.7,9787.1,1017.24,0.0,,6.96,9.97,9,50,56,6,14,100.0
Bandung,Indonesia,96791,-6.75,108.2667,50,27.66,21.9,37.7,18.0,39.4,37549.0,1010.32,26306.0,5.2,8.66,10.0,7,84,0,41,14,100.0
Banff,Canada,71122,51.19,-115.55,1397,2.97,-25.1,27.3,-41.5,37.8,5710.1,1016.58,0.0,,4.16,8.73,7,84,116,0,14,100.0
Bangkok,Thailand,48455,13.7333,100.5667,2,29.12,20.9,37.6,14.8,41.0,25607.5,1009.23,25150.0,5.68,8.53,10.0,2,83,0,140,14,100.0
Banjul,Gambia,61701,13.35,-16.8,36,26.33,16.5,38.5,2.0,44.4,12994.6,1011.35,16467.0,7.74,8.89,10.0,2,69,0,17,14,100.0
Barcelona,Spain,08181,41.2833,2.0667,4,17.35,1.9,32.6,-3.5,37.4,7330.0,1016.78,17677.0,6.17,8.54,10.0,4,83,16,1,14,100.0
Bariloche,Argentina,87765,-41.15,-71.1667,845,8.76,-3.3,26.4,-25.4,35.4,10228.5,1015.57,12179.0,7.16,6.37,10.0,1,84,99,0,14,100.0
Basseterre,Saint Kitts and Nevis,78873,17.4833,-62.9833,38,27.01,22.4,32.1,16.7,33.5,4084.7,1015.75,0.0,,8.26,9.19,1,17,0,26,8,100.0
Bath,United Kingdom,EGTG0,51.5167,-2.5833,69,10.88,-1.9,25.2,-8.8,28.5,573.7,1015.4,0.0,,6.61,9.46,7,4,22,0,5,100.0
Batumi,Georgia,37484,41.65,41.6333,6,15.64,3.5,30.4,0.0,36.0,10461.6,1015.5,0.0,,7.53,10.0,9,26,33,0,14,100.0
Bay of Islands,New Zealand,93012,-35.1,173.2667,54,16.37,6.9,26.3,1.4,28.8,11927.0,1017.36,18294.0,5.85,9.01,10.0,1,54,0,0,13,100.0
Baños,Ecuador,84179,-1.5,-77.95,950,21.4,15.9,28.6,10.0,37.8,58624.1,1013.56,9760.0,2.88,8.52,10.0,9,76,0,0,14,97.4
Beijing,China,54511,39.9333,116.2833,55,13.56,-9.0,35.2,-19.6,41.1,8124.0,1016.72,33574.0,6.69,8.09,10.0,5,84,68,4,14,100.0
Beira,Mozambique,67297,-19.8,34.9,8,24.87,15.9,34.3,11.0,43.4,18622.3,1015.41,12351.0,7.79,8.85,10.0,3,73,0,11,14,99.3
Belfast,United Kingdom,03924,54.6,-5.8833,5,10.39,1.4,20.9,-6.0,29.0,2778.6,1012.13,0.0,,6.33,8.53,7,17,41,0,7,100.0
Belgrade,Serbia,13274,44.8,20.4667,132,13.88,-6.1,32.8,-15.5,40.0,9779.0,1016.85,26826.0,6.33,7.98,10.0,5,84,63,0,14,100.0
Belize City,Belize,78583,17.5333,-88.3,5,27.1,17.8,33.9,12.9,37.0,27621.0,1013.86,32750.0,6.81,9.32,10.0,1,83,0,70,14,100.0
Bergen,Norway,01317,60.3833,5.3333,12,8.54,-5.6,24.2,-13.4,33.4,35219.0,1011.04,0.0,,4.91,8.42,6,84,101,0,14,100.0
Berlin,Germany,10389,52.5167,13.4167,37,10.63,-6.3,28.9,-15.9,37.8,3095.5,1015.54,2143.98,4.4,6.57,10.0,5,32,39,0,8,100.0
Bern,Switzerland,06631,46.9908,7.4639,553,10.43,-3.7,27.3,-14.6,35.4,6004.0,1018.07,12048.0,5.58,7.44,10.0,6,34,35,0,6,100.0
Biarritz,France,07602,43.4667,-1.5333,75,14.54,0.2,26.8,-7.7,42.9,0.0,1018.48,2194.53,4.81,7.84,10.0,7,0,27,0,14,99.4
Bilbao,Spain,08025,43.3,-2.9333,42,15.32,2.2,28.6,-4.1,44.0,16759.0,1018.49,22275.0,4.35,8.44,10.0,7,84,22,0,14,100.0
Birmingham,United Kingdom,03534,52.45,-1.7333,99,10.46,0.3,25.2,-9.0,37.0,1273.5,1014.41,1685.4,3.46,6.6,10.0,6,9,84,0,14,100.0
Bishkek,Kyrgyzstan,38353,42.85,74.5333,756,12.14,-11.8,36.4,-23.5,42.1,6397.8,1018.43,19601.0,6.91,7.07,10.0,5,84,71,2,14,100.0
Blantyre,Malawi,67693,-15.6833,34.9667,766,23.74,13.3,33.8,7.2,39.0,3673.8,1016.64,809.0,8.79,9.09,9.97,5,30,0,1,12,72.6
Bled,Slovenia,14010,46.3667,14.1833,515,10.42,-8.5,27.8,-17.2,34.6,3417.2,1017.59,0.0,,6.32,9.7,8,17,41,0,8,100.0
Bocas del Toro,Panama,78767,10.0,-83.05,5,25.95,19.8,31.5,17.3,33.9,40207.0,1011.81,18614.0,4.78,8.67,10.0,3,75,0,3,14,99.4
Bogotá,Colombia,80222,4.7167,-74.15,2547,13.94,5.2,22.2,-0.9,25.1,12352.0,1022.31,9372.0,4.35,7.77,9.85,2,80,0,0,14,100.0
Bologna,Italy,16140,44.5333,11.3,36,14.67,-2.6,33.9,-8.0,39.5,1176.3,1015.84,405.18,4.4,7.33,10.0,10,9,60,0,14,100.0
Bora Bora,French Polynesia,91930,-16.45,-151.75,4,27.25,23.2,31.7,19.6,32.7,17328.4,1012.87,526.08,5.73,7.94,9.91,10,60,0,36,14,100.0
Bordeaux,France,07510,44.8333,-0.7,49,14.21,-1.6,31.8,-8.8,41.2,12253.0,1018.0,29657.0,5.83,8.41,10.0,6,80,52,0,14,100.0
Boston,United States,72509,42.3667,-71.0167,6,11.74,-12.0,30.4,-23.2,39.4,15292.0,1015.82,0.0,,6.28,9.74,8,84,75,0,14,100.0
Braga,Portugal,08545,41.2333,-8.6833,69,15.17,4.7,26.6,-2.0,38.3,2324.0,1018.49,0.0,,7.88,9.79,8,9,11,0,14,100.0
Bratislava,Slovakia,11816,48.2,17.2,133,11.56,-7.9,29.9,-15.7,37.1,1048.8,1017.3,263.35,2.86,6.79,10.0,7,9,75,0,14,100.0
Brazzaville,Republic of the Congo,64450,-4.25,15.25,319,25.91,19.2,33.6,14.3,37.6,21231.3,1010.46,24652.0,5.2,9.47,10.0,1,81,0,0,14,100.0
Bridgetown,Barbados,78954,13.0667,-59.4833,50,27.13,21.2,32.4,15.7,35.0,12514.0,1013.7,40307.22,8.23,9.8,10.0,1,59,0,22,14,100.0
Brisbane,Australia,94576,-27.5,153.0,8,19.59,8.5,32.4,2.6,41.2,11263.0,1016.23,0.0,,8.42,9.55,10,62,0,0,14,21.6
Bristol,United Kingdom,EGTG0,51.5167,-2.5833,69,10.88,-1.9,25.2,-8.8,28.5,573.7,1015.4,0.0,,6.61,9.46,7,4,22,0,5,100.0
Brno,Czech Republic,11723,49.15,16.7,241,10.54,-8.8,30.0,-18.3,37.8,7435.5,1017.08,26108.0,5.1,7.41,10.0,6,84,82,0,14,100.0
Bruges,Belgium,06418,51.35,3.2,18,11.34,-0.4,23.2,-6.6,34.9,2424.0,1015.64,0.0,,6.72,9.49,8,17,67,0,14,100.0
Brussels,Belgium,06447,50.8,4.35,100,11.26,-3.2,27.4,-13.0,39.7,11872.5,1015.83,22741.0,4.7,7.57,10.0,6,81,76,0,14,100.0
Bucharest,Romania,15422,44.4167,26.0833,82,13.37,-3.6,34.5,-15.6,40.8,1483.7,1017.0,0.0,,6.98,9.85,6,17,36,0,8,100.0
Budapest,Hungary,12843,47.4333,19.1833,138,12.08,-8.4,31.1,-16.7,38.2,8562.0,1017.02,32529.0,6.47,7.82,10.0,6,83,72,0,14,100.0
Buenos Aires,Argentina,87585,-34.5833,-58.4833,25,18.64,6.2,32.4,0.6,41.5,1244.3,1015.87,2302.0,6.31,8.71,10.0,1,9,0,0,6,100.0
Bukhara,Uzbekistan,UTSB0,39.7667,64.4667,229,16.24,-8.0,40.2,-21.0,45.0,429.5,1015.38,0.0,,7.01,9.97,9,17,61,35,14,100.0
Busan,South Korea,RKPP0,35.1667,129.1333,2,15.45,-3.2,30.6,-11.7,34.6,4036.1,1015.46,0.0,,6.97,9.88,6,15,9,0,3,100.0
Byron Bay,Australia,94599,-28.6,153.6,95,19.26,11.5,30.5,7.5,34.0,15195.9,1016.4,0.0,,8.28,9.69,1,64,0,0,14,22.1
Búzios,Brazil,SBME0,-22.35,-41.7667,2,23.74,14.2,35.5,9.0,39.2,2939.7,1016.12,0.0,,9.25,10.0,5,17,0,2,14,100.0
Cairo,Egypt,62366,30.1333,31.4,64,23.16,9.6,37.4,1.4,45.7,311.5,1013.89,3350.43,9.17,8.6,10.0,4,69,0,46,14,100.0
Calgary,Canada,DHKZ6,51.11,-114.0,1082,4.63,-23.7,26.9,-34.4,36.7,5212.6,1014.49,0.0,,4.66,9.03,8,84,110,0,14,100.0
Cali,Colombia,80259,3.55,-76.3833,961,23.78,17.6,33.1,13.1,36.1,12299.0,1012.98,24448.0,5.22,9.91,10.0,1,79,0,0,14,100.0
Cancun,Mexico,76595,21.0333,-87.4167,10,26.41,18.6,32.7,12.0,39.0,1589.6,1015.1,0.0,,8.58,9.94,1,9,0,23,7,100.0
Cape Town,South Africa,68816,-33.9833,18.6,42,17.44,6.1,29.7,-0.1,42.3,6063.5,1017.18,43372.0,8.6,9.65,10.0,1,84,0,0,14,100.0
Cappadocia,Turkey,17193,38.6167,34.7167,1260,11.94,-6.7,33.3,-18.9,48.8,6174.0,1014.97,36301.0,7.09,7.94,10.0,5,80,73,0,14,100.0
Caracas,Venezuela,80416,10.5,-66.8833,835,23.13,16.1,33.1,0.0,35.0,7605.6,1014.69,14359.0,6.46,9.74,10.0,1,50,0,0,14,92.0
Carcassone,France,07635,43.2167,2.3167,130,14.22,-1.1,32.7,-7.2,43.0,0.0,1017.88,2279.5,4.99,7.63,10.0,7,0,48,0,14,98.2
Carcassonne,France,07635,43.2167,2.3167,130,14.22,-1.1,32.7,-7.2,43.0,0.0,1017.88,2279.5,4.99,7.63,10.0,7,0,48,0,14,98.2
Cardiff,United Kingdom,03715,51.4,-3.35,67,11.17,1.1,23.8,-6.0,32.0,1985.1,1015.21,1762.73,3.62,6.79,10.0,6,9,68,0,14,100.0
Cartagena,Colombia,80022,10.45,-75.5167,1,28.26,22.9,33.6,21.0,40.4,15928.5,1009.6,31672.0,6.82,9.24,10.0,1,81,0,104,14,100.0
Casablanca,Morocco,60155,33.5667,-7.6667,62,18.73,6.9,29.0,3.3,36.5,5404.0,1017.43,38419.0,8.52,9.64,10.0,3,84,0,0,14,99.4
Castries,Saint Lucia,78948,13.75,-60.95,3,27.7,23.5,32.3,2.0,39.0,1649.6,1014.2,2524.45,5.53,8.39,10.0,12,9,0,68,14,100.0
Catania,Italy,16460,37.4667,15.05,11,17.73,2.9,34.3,-2.3,45.0,715.5,1015.81,3652.58,7.99,8.24,10.0,6,9,12,2,14,100.0
Caye Caulker,Belize,78583,17.5333,-88.3,5,27.1,17.8,33.9,12.9,37.0,27621.0,1013.86,32750.0,6.81,9.32,10.0,1,83,0,70,14,100.0
Cayenne,French Guiana,81405,4.8333,-52.3667,105,26.41,22.0,34.3,18.6,38.0,54017.0,1012.24,27670.0,5.4,8.57,10.0,8,84,0,1,14,100.0
Cebu,Philippines,98646,10.3,123.9667,23,28.11,23.0,34.9,20.4,37.4,25945.0,1010.02,28356.0,6.57,8.97,10.0,3,84,0,90,14,100.0
Cesky Krumlov,Czech Republic,D4755,48.6819,13.7351,847,7.61,-6.6,22.9,-15.2,30.7,13791.2,1017.85,0.0,,5.19,8.38,7,79,20,0,14,22.8
Charleston,United States,KJZI0,32.701,-80.0033,6,19.47,2.3,32.5,-8.0,38.0,4064.4,1018.12,0.0,,8.12,10.0,10,17,5,5,11,100.0
Charlotte,United States,72314,35.214,-80.9431,228,16.77,-4.5,34.4,-14.9,40.0,16160.0,1017.93,0.0,,7.25,9.96,5,84,45,1,14,100.0
Charlottetown,Canada,71706,46.29,-63.12,51,6.59,-18.0,26.0,-27.1,32.6,16372.5,1014.02,0.0,,4.9,9.61,7,83,102,0,14,100.0
Chefchaouen,Morocco,60318,35.5833,-5.3333,10,19.47,7.7,33.2,3.0,42.2,1602.5,1017.8,266.0,8.58,8.64,10.0,6,19,0,0,13,100.0
Chengdu,China,56294,30.6667,104.0167,508,18.09,1.5,35.4,-3.0,41.0,3028.0,1015.01,0.0,,7.97,10.0,5,17,36,7,14,100.0
Chiang Mai,Thailand,48327,18.7833,98.9833,312,27.09,15.1,39.9,9.6,42.5,16584.0,1009.64,34365.0,7.16,9.38,10.0,1,84,0,57,14,100.0
Chiang Rai,Thailand,48303,19.9167,99.8333,394,25.4,12.9,38.3,6.6,42.0,24306.0,1009.04,23339.0,6.94,8.94,10.0,1,84,0,21,14,100.0
Chicago,United States,72534,41.7833,-87.75,189,11.53,-13.1,33.4,-30.0,40.6,15348.7,1016.58,0.0,,6.1,9.79,9,84,76,0,14,100.0
Chisinau,Moldova,33815,47.0167,28.9833,180,11.4,-10.5,32.6,-17.2,37.4,7642.5,1016.27,32891.0,6.42,7.57,10.0,5,81,77,0,14,100.0
Christchurch,New Zealand,93780,-43.4833,172.55,38,11.86,0.0,24.7,-6.0,36.0,2074.8,1012.63,2259.0,6.23,7.02,10.0,2,17,61,0,14,100.0
Christiansted,U.S. Virgin Islands,78547,17.7,-64.8,20,27.2,21.9,34.3,18.0,36.0,1581.7,1015.44,2605.03,5.7,8.64,10.0,12,9,0,28,7,96.1
Cleveland,United States,KBKL0,41.5175,-81.6833,178,11.84,-13.2,29.2,-23.3,36.1,0.0,1016.65,0.0,,6.75,10.0,6,0,73,0,14,98.8
Colmar,France,LFGA0,48.1099,7.359,191,12.63,-0.7,29.1,-11.0,38.0,2553.3,1016.91,0.0,,6.88,9.88,8,17,20,0,4,100.0
Cologne,Germany,D2968,50.9894,6.9777,43,11.95,-3.1,29.6,-13.6,41.1,10658.5,1016.49,0.0,,6.66,9.73,8,83,71,0,14,100.0
Colombo,Sri Lanka,43466,6.9,79.8667,7,28.12,22.8,33.3,18.2,36.1,35752.0,1009.59,31137.0,6.83,8.87,10.0,2,84,0,90,14,100.0
Constanta,Romania,15480,44.2167,28.6333,13,13.39,-5.3,30.5,-17.8,36.0,6638.0,1016.55,32610.0,6.37,8.07,10.0,5,84,65,0,14,100.0
Copenhagen,Denmark,06186,55.6833,12.5333,9,9.93,-5.4,25.9,-8.0,30.8,9503.0,1014.17,0.0,,6.1,9.78,7,82,86,0,14,100.0
Cork,Ireland,03955,51.85,-8.4833,153,10.02,-0.4,21.9,-7.1,28.3,17481.0,1014.18,20548.0,4.02,7.07,10.0,7,84,88,0,14,100.0
Cotonou,Benin,65344,6.35,2.3833,5,28.05,22.0,33.5,16.7,36.6,18837.5,1010.95,30017.0,5.95,9.34,10.0,12,84,0,94,14,100.0
Cozumel,Mexico,76648,20.5333,-86.9333,5,26.67,18.7,35.2,12.1,39.7,2815.2,1014.7,0.0,,8.4,9.7,1,17,0,18,7,100.0
Crete,Greece,16746,35.4833,24.1167,146,19.03,6.7,33.5,1.0,42.0,9891.0,1014.43,40002.0,7.91,9.25,10.0,4,84,4,9,14,100.0
Cuenca,Ecuador,84226,-2.55,-78.9333,3120,11.8,5.2,20.5,0.5,21.4,7636.8,1019.39,20548.0,5.12,8.0,9.58,9,78,4,0,14,95.7
Curitiba,Brazil,83842,-25.4333,-49.2667,924,18.13,6.8,30.3,-2.1,35.5,19933.8,1016.59,19933.0,4.9,9.23,10.0,2,76,0,0,14,99.4
Cuzco,Peru,84686,-13.55,-71.9833,3248,12.6,-0.5,24.0,-4.2,27.3,9798.5,1029.4,0.0,,6.89,8.33,10,81,6,0,14,100.0
Córdoba,Argentina,87345,-31.4,-64.1833,426,19.26,2.6,34.5,-2.2,43.7,2082.7,1014.35,2344.0,6.45,8.75,10.0,11,17,1,0,5,100.0
Da Lat,Vietnam,48877,12.25,109.2,10,27.39,20.6,34.5,17.3,38.7,21556.0,1009.71,31826.0,6.75,9.31,10.0,3,83,0,73,14,100.0
Dakar,Senegal,61641,14.7333,-17.5,27,24.88,16.5,32.9,10.2,39.4,6700.7,1012.58,37990.0,8.0,9.8,10.0,1,76,0,31,14,100.0
Dallas,United States,72258,32.8471,-96.8518,148,20.47,0.3,40.5,-16.6,44.4,13730.2,1016.0,0.0,,7.44,9.72,4,84,16,42,14,98.8
Dar es Salaam,Tanzania,63894,-6.8667,39.2,55,26.37,18.9,34.0,10.0,36.3,16198.0,1013.83,37240.48,7.89,9.64,10.0,1,82,0,31,14,100.0
Darwin,Australia,94120,-12.4,130.9,31,28.02,16.1,35.3,12.7,38.2,24963.5,1010.08,42492.0,8.62,9.25,10.0,5,84,0,104,14,100.0
Davao,Philippines,98753,7.1167,125.65,17,27.89,22.9,34.3,3.0,40.0,4091.2,1009.57,0.0,,8.03,8.68,2,9,0,39,9,100.0
Debrecen,Hungary,12882,47.4833,21.6,108,11.6,-9.6,31.1,-16.6,38.5,7388.0,1016.72,32326.95,6.8,7.7,10.0,6,81,77,0,14,100.0
Delhi,India,42182,28.5833,77.2,211,25.36,6.1,41.8,0.7,46.0,11559.5,1007.66,28166.0,5.87,8.96,10.0,2,82,0,80,14,100.0
Denver,United States,72469,39.7833,-104.8667,1626,10.71,-7.2,31.9,-20.2,37.3,518.2,1014.97,0.0,,6.34,9.85,6,9,34,0,6,100.0
Detroit,United States,71538,42.28,-82.96,190,10.09,-15.0,31.0,-26.1,37.9,9066.9,1016.79,0.0,,6.06,9.97,7,59,82,0,14,100.0
Dhaka,Bangladesh,41923,23.7667,90.3833,8,26.04,12.3,36.4,10.8,40.6,24120.5,1007.73,21973.0,5.17,8.8,10.0,1,80,0,77,14,97.5
Doha,Qatar,41170,25.25,51.5667,11,28.94,14.3,43.8,8.6,50.4,509.5,1009.44,11510.0,9.45,8.09,10.0,2,36,0,90,14,100.0
Dubai,United Arab Emirates,OMDM0,25.0268,55.3662,50,28.07,12.2,44.7,9.6,47.6,129.9,1008.08,0.0,,7.85,9.94,3,14,0,31,6,100.0
Dublin,Ireland,03969,53.4333,-6.25,68,9.63,-3.4,21.9,-12.1,29.1,10889.0,1013.35,21103.0,4.13,7.2,10.0,7,82,91,0,14,100.0
Dubrovnik,Croatia,14474,42.5667,18.2667,157,16.56,1.7,31.3,-4.0,35.2,2610.3,1015.6,0.0,,7.81,10.0,6,9,34,0,14,100.0
Dunedin,New Zealand,93891,-45.9167,170.1833,1,10.81,-0.2,22.8,-8.3,32.6,2473.7,1012.78,0.0,,6.33,8.1,1,17,17,0,4,100.0
Durban,South Africa,68588,-29.9667,30.95,14,21.19,9.6,31.1,0.0,40.4,9100.5,1017.18,843.0,7.06,9.01,10.0,2,57,0,0,14,100.0
Dushanbe,Tajikistan,38836,38.55,68.7833,803,15.73,-5.2,39.7,-17.6,45.3,9516.0,1013.56,13096.0,5.58,7.56,10.0,4,82,56,9,14,100.0
Edinburgh,United Kingdom,03160,55.95,-3.35,41,9.13,-1.3,21.3,-14.0,31.0,1561.2,1011.91,1542.4,3.17,6.18,10.0,6,9,94,0,14,100.0
Edmonton,Canada,71157,53.57,-113.52,671,4.55,-24.4,26.6,-37.6,37.0,5100.4,1015.23,0.0,,4.67,9.46,8,77,102,0,14,100.0
Eindhoven,Netherlands,06370,51.45,5.4167,23,11.07,-4.5,28.1,-19.5,40.1,1601.6,1015.73,0.0,,6.67,10.0,7,9,80,0,14,99.4
El Chaltén,Argentina,87904,-50.2667,-72.05,199,7.8,-7.9,21.9,-17.4,28.4,2070.5,1006.43,31864.0,6.47,7.49,10.0,1,82,101,0,14,99.4
Espiritu Santo,Vanuatu,91554,-15.5167,167.2167,41,26.15,18.0,32.7,14.2,34.0,36907.4,1010.58,206.0,6.87,7.66,9.44,11,80,0,1,14,100.0
Essaouira,Morocco,60220,31.5167,-9.7833,15,19.76,8.7,34.1,4.0,48.0,693.5,1016.54,468.0,7.69,8.95,10.0,1,17,0,0,7,100.0
Florence,Italy,16170,43.8,11.2,40,15.85,-0.7,36.0,-7.0,41.0,1825.8,1015.82,2357.12,5.16,7.73,10.0,9,9,43,1,14,100.0
Florianópolis,Brazil,83897,-27.5833,-48.5667,2,21.56,10.7,32.5,2.6,40.0,17153.0,1015.62,17781.0,5.58,9.66,10.0,4,60,0,0,11,91.0
Fort Lauderdale,United States,74783,26.0726,-80.1527,3,25.42,10.2,33.3,1.1,36.1,22334.9,1016.75,0.0,,8.13,9.99,1,83,0,48,14,100.0
Fortaleza,Brazil,82398,-3.7833,-38.5333,25,27.49,22.6,31.6,20.9,33.4,9278.0,1012.7,0.0,,8.08,8.95,7,52,0,40,14,100.0
Frankfurt,Germany,D1424,50.1269,8.6694,124,11.88,-3.5,30.7,-14.5,40.2,8984.3,1017.06,0.0,,6.67,9.88,7,84,72,0,14,100.0
Fraser Island,Australia,95565,-25.3,152.9,18,21.46,7.4,32.5,0.7,36.8,12953.9,1015.54,0.0,,8.75,9.87,10,73,0,0,14,21.4
Freetown,Sierra Leone,61856,8.6167,-13.2,25,27.28,23.2,32.1,19.0,39.0,4837.8,1011.35,0.0,,8.04,8.89,8,9,0,10,6,100.0
Freiburg,Germany,10803,48.0,7.85,269,11.5,-7.0,29.8,-17.2,38.3,11593.8,1017.48,26085.6,5.13,7.67,10.0,6,84,76,0,14,100.0
Fukuoka,Japan,47809,33.65,130.7,37,16.29,-0.1,34.4,-5.3,38.3,11562.8,1015.97,0.0,,7.25,10.0,6,36,43,9,14,100.0
Funafuti,Tuvalu,91643,-8.5167,179.2167,1,28.86,25.0,33.3,17.3,39.1,30590.4,1009.08,0.0,,7.03,8.26,1,59,0,162,14,100.0
Funchal,Portugal,08522,32.6333,-16.9,58,19.9,13.0,28.7,9.8,38.7,8097.5,1020.43,33782.0,6.61,9.92,10.0,4,84,0,0,14,100.0
Fès,Morocco,60141,33.9333,-4.9833,579,18.72,3.3,39.5,-25.0,46.7,885.0,1018.45,8785.0,8.74,8.53,10.0,4,16,7,12,14,100.0
Galle,Sri Lanka,43497,6.1167,81.1333,18,28.16,22.9,33.5,20.0,36.5,15541.0,1008.99,0.0,,7.69,8.68,9,84,0,90,14,98.8
Galway,Ireland,03962,52.7,-8.9167,14,10.7,-2.6,23.0,-11.3,32.0,14711.0,1013.54,19449.0,3.8,7.3,10.0,6,82,78,0,14,100.0
Galápagos Islands,Ecuador,84008,-0.9,-89.6,6,24.65,18.3,31.9,0.0,39.0,5609.3,1012.3,18582.0,6.31,9.6,10.0,3,64,0,0,14,95.1
Gdansk,Poland,12155,54.3333,18.9333,7,9.31,-5.3,25.1,-18.6,34.3,1028.0,1014.77,0.0,,6.09,9.7,8,17,26,0,5,100.0
Georgetown,Guyana,81001,6.8,-58.15,1,27.63,22.4,33.6,20.7,35.6,18113.0,1012.74,16663.0,6.6,9.12,10.0,2,43,0,26,10,97.7
Ghent,Belgium,06434,50.9833,3.8167,13,11.17,-2.0,27.2,-8.7,38.2,2307.2,1016.45,0.0,,6.67,9.79,7,17,66,0,14,100.0
Giza,Egypt,62378,29.8667,31.3333,139,23.2,8.1,38.2,5.0,45.2,256.5,1014.09,15464.0,9.76,8.97,10.0,1,35,0,42,14,99.3
Gjirokastër,Albania,16641,39.6167,19.9167,2,18.84,2.5,34.9,-3.0,41.0,15119.0,1014.55,37841.0,7.39,9.04,10.0,4,84,8,21,14,100.0
Glasgow,United Kingdom,03140,55.8667,-4.4333,8,9.3,-1.9,21.7,-11.0,31.0,2220.5,1012.17,1425.22,2.93,6.21,9.91,6,9,93,0,14,100.0
Goa,India,43192,15.4833,73.8167,58,27.9,19.0,35.2,15.9,38.7,43772.5,1009.02,33391.0,6.67,8.48,10.0,1,83,0,63,14,100.0
Gold Coast,Australia,94580,-27.9,153.4,2,20.55,10.7,30.4,4.9,37.9,14648.5,1016.21,0.0,,8.56,9.75,11,63,0,0,14,21.4
Gorée Island,Senegal,61641,14.7333,-17.5,27,24.88,16.5,32.9,10.2,39.4,6700.7,1012.58,37990.0,8.0,9.8,10.0,1,76,0,31,14,100.0
Gothenburg,Sweden,02512,57.7833,11.8833,20,8.59,-5.0,21.7,-15.0,32.0,1149.5,1012.38,2123.27,4.36,6.07,10.0,5,9,78,0,13,100.0
Gotland,Sweden,02590,57.6667,18.35,51,8.13,-7.9,25.4,-21.2,33.7,7112.1,1013.03,30320.0,5.95,7.08,10.0,6,82,102,0,14,100.0
Granada,Nicaragua,78741,12.15,-86.1667,50,27.65,17.3,37.8,14.0,45.0,10382.6,1010.89,20058.0,7.94,8.93,10.0,2,62,0,51,14,100.0
Granada,Spain,08420,37.1372,-3.6314,687,16.22,-2.8,37.7,-9.6,43.8,4832.5,1016.86,42145.0,8.33,9.03,10.0,4,71,43,4,14,100.0
Great Barrier Reef,Australia,94285,-16.4,145.6,3,25.26,20.1,35.0,17.8,38.8,26968.4,1012.13,0.0,,7.99,9.65,8,75,0,0,14,22.4
Guadalajara,Mexico,76612,20.6667,-103.3833,1551,20.37,5.7,36.7,0.0,40.5,11376.6,1011.2,25516.0,8.08,9.82,10.0,10,58,0,0,12,98.3
Guanajuato,Mexico,76577,21.0167,-101.25,1999,19.43,5.3,35.2,0.8,39.2,10641.0,1012.01,33752.0,6.68,9.87,10.0,3,84,0,0,14,97.6
Guilin,China,57957,25.3333,110.3,166,19.85,2.5,36.8,-3.0,40.0,13496.1,1014.21,0.0,,7.7,9.97,10,42,17,28,14,100.0
Guimarães,Portugal,08545,41.2333,-8.6833,69,15.17,4.7,26.6,-2.0,38.3,2324.0,1018.49,0.0,,7.88,9.79,8,9,11,0,14,100.0
Ha Long,Vietnam,48826,20.8,106.6333,119,23.69,10.9,34.4,4.5,39.5,24608.5,1011.07,19764.0,4.1,9.04,10.0,10,83,0,36,14,100.0
Halifax,Canada,71328,44.66,-63.58,4,8.68,-11.2,25.0,-23.6,34.4,4810.8,1014.91,0.0,,5.8,9.7,8,17,65,0,11,100.0
Hallstatt,Austria,11357,47.7333,13.45,539,10.19,-2.7,27.4,-12.4,35.0,2875.2,1017.67,1853.3,4.06,6.48,10.0,6,9,34,0,6,100.0
Hamburg,Germany,10147,53.6333,10.0,16,10.05,-6.3,27.1,-17.7,39.1,10475.4,1015.01,23228.1,4.54,7.28,10.0,6,84,86,0,14,100.0
Hamilton,Bermuda,78016,32.3667,-64.6833,6,22.44,13.5,31.0,9.0,32.4,20092.0,1019.03,35189.0,6.92,9.88,10.0,4,84,0,5,14,100.0
Hamilton Island,Australia,YBHM0,-20.35,148.95,15,23.91,16.6,30.5,12.0,34.0,3346.8,1013.62,0.0,,9.03,9.97,5,17,0,2,14,100.0
Hanoi,Vietnam,48820,21.0167,105.8,6,24.51,11.2,36.0,6.0,40.4,8023.7,1010.68,2662.0,3.48,8.5,10.0,3,25,0,62,14,100.0
Harare,Zimbabwe,67775,-17.9167,31.1333,1479,19.04,5.1,31.4,0.0,35.8,6433.2,1017.33,15786.0,9.45,9.29,10.0,9,51,0,0,14,99.4
Harbin,China,50953,45.75,126.7667,143,4.3,-25.8,31.4,-33.4,37.8,4205.9,1014.56,0.0,,4.73,9.97,8,36,72,0,12,100.0
Havana,Cuba,78325,23.1667,-82.35,50,25.46,16.2,36.0,9.4,38.2,16912.0,1015.92,14443.0,7.78,8.95,10.0,1,84,0,10,14,100.0
Heidelberg,Germany,10734,49.4,8.65,110,11.57,-4.0,28.4,-14.2,36.5,2808.6,1014.95,0.0,,6.55,9.79,6,22,21,0,5,100.0
Helsinki,Finland,02978,60.1833,24.95,4,6.97,-13.4,25.8,-23.9,33.2,9598.0,1012.47,0.0,,5.21,9.67,7,84,103,0,14,100.0
Hiroshima,Japan,47765,34.4,132.4667,4,16.77,-0.5,35.1,-4.6,38.0,23612.0,1015.58,29105.0,5.69,8.45,10.0,8,84,46,15,14,100.0
Ho Chi Minh City,Vietnam,48900,10.8167,106.6667,19,28.09,22.5,36.4,18.0,38.0,9370.4,1008.96,0.0,,7.89,9.13,1,27,0,86,14,100.0
Hobart,Australia,94970,-42.9,147.3,51,12.19,3.5,25.9,-0.4,41.8,7144.8,1014.19,0.0,,6.81,8.44,1,76,12,0,14,21.4
Hoi An,Vietnam,48855,16.0333,108.1833,7,26.49,18.1,36.6,12.9,40.2,35959.5,1010.45,28252.0,5.87,8.98,10.0,3,84,0,64,14,100.0
Hong Kong,Hong Kong,45004,22.3167,114.1667,65,23.45,10.7,32.7,2.6,36.9,32563.0,1012.8,25960.0,5.07,8.97,10.0,3,84,0,43,14,100.0
Honiara,Solomon Islands,91517,-9.4167,159.9667,55,27.15,23.5,33.2,21.0,35.4,5333.2,1009.22,0.0,,8.3,8.77,7,13,0,5,14,100.0
Honolulu,United States,91182,21.3333,-157.95,4,25.69,18.2,32.8,13.9,35.0,5889.8,1016.33,0.0,,8.72,9.73,1,83,0,11,14,100.0
Houston,United States,72244,29.6073,-95.1587,10,22.27,4.2,38.8,-9.3,42.8,18009.9,1016.88,0.0,,7.82,9.85,3,84,2,47,14,99.4
Hue,Vietnam,48852,16.4,107.6833,17,25.37,15.6,37.3,9.5,40.6,47735.5,1010.26,25585.0,5.35,8.69,10.0,3,84,0,55,14,100.0
Hvar,Croatia,14445,43.5167,16.4333,122,17.4,2.0,33.8,-7.2,38.5,11617.0,1014.93,37557.0,7.33,8.96,10.0,5,84,27,9,14,100.0
Iguazu Falls,Argentina,87097,-25.7333,-54.4667,270,21.55,8.5,35.3,-1.4,40.6,26626.0,1013.44,29587.0,5.8,9.63,10.0,1,84,0,0,14,100.0
Innsbruck,Austria,11121,47.2575,11.3536,579,9.93,-5.3,28.5,-16.6,36.7,3420.3,1018.25,4080.48,5.17,6.68,10.0,7,18,30,0,5,100.0
Iquitos,Peru,84377,-3.75,-73.25,125,26.03,20.0,34.4,14.2,38.4,38748.0,1013.63,0.0,,7.64,8.87,6,83,0,0,14,100.0
Islamabad,Pakistan,41571,33.6167,73.1,507,22.23,2.9,41.3,-3.5,46.0,17933.0,1009.88,0.0,,7.51,9.7,10,81,2,57,14,100.0
Isle of Skye,United Kingdom,03022,57.4667,-7.3667,6,9.55,1.0,18.2,-5.0,24.0,3834.0,1009.9,0.0,,6.12,7.87,7,17,72,0,14,100.0
Istanbul,Turkey,17062,40.9667,29.0833,33,15.94,0.3,33.0,-4.9,36.8,2647.5,1015.54,8140.0,6.84,8.32,10.0,5,24,15,0,4,100.0
Izmir,Turkey,17219,38.2667,27.15,125,17.44,0.7,36.4,-7.0,43.0,1084.2,1013.82,0.0,,7.68,9.91,5,9,39,25,14,100.0
Jaipur,India,42348,26.8167,75.8,385,25.95,8.6,43.2,1.0,46.3,1332.8,1009.44,0.0,,8.04,10.0,11,9,0,71,13,100.0
Jeju Island,South Korea,47182,33.5,126.5,36,16.03,0.6,32.2,-6.0,37.0,2795.7,1016.44,0.0,,7.57,9.91,6,9,48,8,14,100.0
Jodhpur,India,42339,26.3,73.0167,217,27.33,8.6,42.8,3.9,48.8,6089.0,1007.56,0.0,,7.76,9.97,2,81,0,95,14,100.0
Johannesburg,South Africa,68368,-26.1333,28.2333,1694,17.06,2.8,29.5,-7.0,35.6,9156.7,1018.57,34372.1,8.36,9.64,10.0,2,82,1,0,14,100.0
Kandy,Sri Lanka,43441,7.4667,80.3667,116,27.79,19.9,36.7,14.4,38.8,29716.0,1009.01,0.0,,7.37,8.71,1,83,0,71,14,94.6
Kangaroo Island,Australia,95807,-35.7,137.5,8,12.17,5.6,24.5,-2.2,45.4,7117.5,1016.06,0.0,,6.65,9.93,8,82,77,0,14,100.0
Kathmandu,Nepal,44454,27.7,85.3667,1337,18.94,1.6,31.9,-4.2,35.2,19077.4,1015.08,13542.0,5.72,8.69,10.0,3,70,2,0,14,99.4
Kaunas,Lithuania,26629,54.8833,23.8333,76,8.04,-13.8,28.5,-24.2,34.6,9160.5,1015.21,26051.0,5.08,6.77,10.0,6,83,95,0,14,100.0
Keswick,United Kingdom,03220,54.9333,-2.9667,28,10.24,-0.7,22.2,-9.5,34.4,1641.9,1012.75,1773.28,3.64,6.59,10.0,6,9,38,0,6,100.0
Key West,United States,72201,24.55,-81.1,1,26.11,14.4,33.3,5.6,37.8,14139.0,1016.73,0.0,,8.24,10.0,2,84,0,56,14,100.0
Khiva,Uzbekistan,38396,41.5667,60.5667,99,13.73,-11.7,39.4,-20.1,45.4,1904.0,1017.64,0.0,,6.55,9.92,5,81,69,19,14,100.0
Kigali,Rwanda,64387,-1.9667,30.1167,1491,21.25,16.0,29.6,11.5,32.0,6796.2,1018.84,1568.37,4.29,9.49,10.0,1,35,0,0,13,97.4
Kingston,Jamaica,78397,17.9333,-76.7833,3,28.02,20.7,34.1,17.8,36.9,10618.5,1013.71,40897.0,8.35,9.76,10.0,1,82,0,78,14,100.0
Koh Lanta,Thailand,48456,13.9167,100.6,4,29.06,20.1,37.3,15.0,40.0,3066.2,1009.38,0.0,,7.79,9.19,12,9,0,132,14,100.0
Kolkata,India,42807,22.5333,88.3333,5,27.43,12.8,37.9,9.0,41.5,24682.5,1007.9,24163.0,4.83,8.61,10.0,1,82,0,103,14,100.0
Kota Kinabalu,Malaysia,96471,5.9333,116.05,3,27.68,22.7,34.8,17.1,36.5,39566.0,1009.3,0.0,,7.12,8.42,2,83,0,45,14,100.0
Kotor,Montenegro,13457,42.4,18.7333,5,15.95,-0.9,33.4,-7.2,37.2,6898.0,1015.53,0.0,,7.58,10.0,6,17,40,0,14,100.0
Krabi,Thailand,48564,7.8833,98.4,2,28.82,24.9,36.1,23.2,38.4,4946.9,1009.52,0.0,,7.77,8.35,10,10,0,108,13,100.0
Krakow,Poland,12566,50.0833,19.8,237,9.37,-10.8,29.0,-24.1,35.6,9456.0,1017.1,0.0,,5.93,9.86,6,83,88,0,14,100.0
Kraków,Poland,12566,50.0833,19.8,237,9.37,-10.8,29.0,-24.1,35.6,9456.0,1017.1,0.0,,5.93,9.86,6,83,88,0,14,100.0
Kuala Lumpur,Malaysia,48647,2.7333,101.7,21,28.13,23.2,35.2,14.5,37.9,42411.0,1009.85,0.0,,6.9,7.98,2,84,0,90,14,100.0
Kuching,Malaysia,96413,1.4833,110.3333,27,26.82,22.7,34.5,15.2,37.3,58279.0,1009.65,0.0,,6.82,7.84,7,83,0,3,14,100.0
Kuwait City,Kuwait,40582,29.2167,47.9833,55,27.5,5.5,48.6,-3.3,52.1,1474.5,1009.79,37632.0,8.08,9.03,10.0,2,69,0,82,14,100.0
Kyiv,Ukraine,33345,50.4,30.5667,166,9.79,-13.1,31.4,-26.8,39.2,8425.1,1016.54,0.0,,6.03,9.88,6,83,83,0,14,100.0
Kyoto,Japan,47759,35.0167,135.7333,41,16.55,0.9,36.2,-4.1,39.5,16302.8,1015.41,0.0,,7.01,9.58,6,59,50,17,14,100.0
La Palma,Spain,60005,28.6167,-17.75,29,21.29,14.6,27.9,11.0,35.8,3836.0,1018.0,30503.0,6.15,9.97,10.0,6,82,0,0,14,100.0
La Paz,Bolivia,85201,-16.5167,-68.1833,4058,8.05,-5.6,19.4,-13.2,22.2,8615.6,1036.4,32296.0,7.25,7.45,8.9,11,83,146,0,14,100.0
Lagos,Portugal,08554,37.0167,-7.9667,7,18.43,6.4,31.9,0.6,39.9,1541.5,1018.13,1106.0,9.15,8.58,10.0,6,19,0,0,14,100.0
Lahore,Pakistan,41640,31.55,74.3333,214,25.05,5.6,41.7,2.3,46.5,10940.0,1008.16,0.0,,7.56,9.97,11,84,0,77,14,100.0
Lake Tahoe,United States,KTVL0,38.8939,-119.9953,1911,7.34,-9.7,28.9,-23.3,33.3,0.0,1017.96,0.0,,5.6,9.4,7,0,101,0,13,100.0
Lapland,Finland,02836,67.3667,26.65,179,0.87,-23.5,26.4,-40.1,32.1,7769.0,1010.28,20115.0,4.02,4.65,10.0,6,78,124,0,14,100.0
Las Vegas,United States,KVGT0,36.2107,-115.1944,672,21.26,2.3,43.3,-5.0,47.2,6.0,1014.33,0.0,,7.6,9.97,5,1,22,52,14,100.0
Launceston,Australia,94969,-41.4,147.1,5,12.9,0.7,27.3,-3.9,35.9,8982.4,1014.87,0.0,,7.04,9.4,1,77,20,0,14,38.7
Lausanne,Switzerland,06610,46.8167,6.95,490,10.29,-7.6,29.5,-17.9,38.2,11739.5,1017.87,27482.0,5.37,7.42,10.0,6,84,85,0,14,100.0
Lautoka,Fiji,91680,-17.75,177.45,13,25.67,17.7,32.8,13.0,36.0,30437.0,1011.49,32338.0,6.72,9.37,10.0,2,84,0,2,14,100.0
Laval,Quebec,ADI6G,45.65,-73.73,53,6.92,,,-30.0,35.0,5027.5,,0.0,,5.17,9.64,8,37,42,0,7,98.7
Leipzig,Germany,10471,51.3167,12.4167,146,10.48,-7.6,28.5,-20.6,38.4,8372.0,1016.21,21127.48,4.66,7.29,10.0,6,84,83,0,14,100.0
Lhasa,China,55591,29.6667,91.1333,3650,9.65,-8.5,26.6,-13.1,30.8,6312.8,1008.05,41397.0,8.46,8.36,10.0,5,84,84,0,14,100.0
Libreville,Gabon,64500,0.45,9.4167,12,26.89,20.0,31.7,17.0,39.2,32711.0,1011.3,20610.0,5.34,8.71,10.0,5,71,0,16,14,100.0
Lille,France,07015,50.5667,3.1,48,11.45,-2.5,28.3,-13.4,41.5,10361.0,1016.11,16191.87,4.43,7.36,10.0,6,84,75,0,14,100.0
Lima,Peru,84628,-12.0,-77.1167,12,19.77,14.2,29.8,12.7,33.4,86.0,1013.55,11604.0,3.33,9.42,10.0,1,20,0,0,14,100.0
Linz,Austria,11010,48.2333,14.1833,298,10.29,-7.6,29.3,-18.0,36.0,250.0,1017.77,4133.87,4.7,6.65,10.0,7,2,84,0,14,100.0
Lisbon,Portugal,08535,38.7167,-9.15,77,17.42,6.7,31.6,1.2,42.0,10204.4,1017.94,31243.0,7.95,9.12,10.0,4,83,0,0,14,100.0
Livingstone,Zambia,67743,-17.8167,25.8167,985,23.02,6.0,37.7,2.8,40.8,2307.4,1014.38,0.0,,8.9,9.97,4,25,0,6,11,98.8
Ljubljana,Slovenia,14015,46.0667,14.5167,299,12.04,-6.2,31.0,-13.3,40.2,20005.0,1017.27,28168.0,5.5,7.49,10.0,6,84,70,0,14,100.0
Lomé,Togo,65387,6.1667,1.25,20,27.8,22.9,34.4,5.9,38.1,9038.0,1010.68,13695.0,6.07,8.77,10.0,12,54,0,83,14,100.0
London,United Kingdom,EGLC0,51.5,0.1167,5,12.31,1.5,26.9,-5.0,39.0,1917.5,1015.34,0.0,,7.03,9.91,7,17,66,0,14,100.0
Los Angeles,United States,KCQT0,34.0167,-118.2833,56,18.47,8.2,30.5,1.7,43.0,63.4,1014.96,0.0,,8.79,9.97,10,7,0,0,5,100.0
Los Cabos,Mexico,76577,21.0167,-101.25,1999,19.43,5.3,35.2,0.8,39.2,10641.0,1012.01,33752.0,6.68,9.87,10.0,3,84,0,0,14,97.6
Luanda,Angola,66160,-8.85,13.2333,74,25.32,18.4,33.1,15.0,39.0,2330.8,1011.38,324.0,10.8,8.9,10.0,11,43,0,8,14,99.4
Luang Prabang,Laos,48930,19.8833,102.1333,305,26.39,10.3,39.5,5.0,43.5,21399.0,1009.54,26849.0,5.63,9.16,10.0,1,82,0,63,14,99.4
Lucca,Italy,16134,44.2,10.7,2165,4.64,-10.1,19.2,-20.0,25.5,8630.9,1018.85,21810.0,5.08,5.86,10.0,8,75,118,0,14,99.4
Lugano,Switzerland,06770,46.0,8.9667,273,13.49,-0.8,31.0,-8.5,34.8,21715.5,1016.45,30786.0,6.02,8.1,10.0,6,84,64,0,14,100.0
Lusaka,Zambia,67663,-14.45,28.4667,1206,21.13,9.6,34.1,4.0,37.2,4990.7,1015.14,6024.0,8.3,9.32,10.0,10,29,0,0,8,100.0
Luxembourg City,Luxembourg,06590,49.6167,6.2167,376,10.25,-4.7,27.9,-15.0,39.0,11266.0,1016.91,26126.0,5.14,7.37,10.0,6,82,84,0,14,100.0
Luxor,Egypt,62405,25.6667,32.7,93,26.2,6.7,43.2,2.0,57.0,1.0,1011.29,0.0,,7.84,10.0,11,2,0,76,14,100.0
Lviv,Ukraine,33393,49.8167,23.95,319,8.98,-13.0,28.9,-22.1,34.8,10672.6,1017.01,23450.0,5.3,6.86,10.0,6,82,88,0,14,100.0
Lyon,France,07480,45.7167,4.95,200,13.38,-3.5,31.9,-12.4,39.9,11410.5,1017.54,2126.87,4.66,7.04,10.0,9,84,65,0,14,100.0
Lübeck,Germany,10156,53.8167,10.7,14,9.7,-6.8,27.3,-20.1,37.9,9033.2,1015.0,22910.7,4.48,7.21,10.0,7,84,86,0,14,100.0
Maastricht,Netherlands,06380,50.9167,5.7833,114,11.07,-4.4,28.6,-15.8,39.6,10439.2,1016.07,25422.0,5.0,7.67,10.0,6,84,81,0,14,100.0
Macau,China,45011,22.1667,113.5667,114,22.85,8.9,32.7,1.6,38.0,26809.0,1013.09,22990.0,4.86,9.03,10.0,10,83,0,30,14,100.0
Machu Picchu,Peru,84686,-13.55,-71.9833,3248,12.6,-0.5,24.0,-4.2,27.3,9798.5,1029.4,0.0,,6.89,8.33,10,81,6,0,14,100.0
Madang,Papua New Guinea,92010,-6.0667,145.3833,1587,21.28,14.3,29.1,,,6748.0,,0.0,,8.95,9.72,9,20,0,0,5,95.0
Madeira,Portugal,08522,32.6333,-16.9,58,19.9,13.0,28.7,9.8,38.7,8097.5,1020.43,33782.0,6.61,9.92,10.0,4,84,0,0,14,100.0
Madrid,Spain,08222,40.4167,-3.6833,655,15.94,0.8,36.8,-7.4,40.7,6163.5,1016.6,0.0,,7.43,9.94,6,82,49,4,14,100.0
Malabo,Equatorial Guinea,64810,3.75,8.7667,56,26.73,22.3,33.1,2.0,42.0,20077.1,1011.89,7667.0,3.65,8.41,10.0,12,57,0,13,14,100.0
Malaga,Spain,08482,36.6667,-4.4833,16,19.48,5.8,34.3,0.0,44.2,6340.0,1017.48,41808.0,8.17,9.66,10.0,4,82,0,5,14,100.0
Malmö,Sweden,06180,55.6167,12.65,5,9.62,-5.3,25.0,-12.8,31.4,1011.8,1014.28,1971.37,5.4,6.35,10.0,5,9,86,0,14,100.0
Malé,Maldives,43555,4.2,73.5333,2,28.98,24.9,33.0,20.0,36.0,23575.1,1010.58,23310.0,7.67,8.52,10.0,1,73,0,160,14,100.0
Manama,Bahrain,41150,26.2667,50.65,2,27.96,14.1,42.1,7.8,47.4,858.0,1009.59,46535.0,9.87,9.69,10.0,1,62,0,84,14,100.0
Manaus,Brazil,82332,-3.15,-59.9833,84,27.5,23.2,35.4,20.0,39.1,9329.0,1011.08,0.0,,8.07,8.92,2,42,0,47,14,99.4
Manchester,United Kingdom,03334,53.35,-2.2833,69,10.42,0.1,24.1,-10.0,37.0,1732.0,1014.14,1638.55,3.37,6.57,10.0,6,9,66,0,13,100.0
Manila,Philippines,98425,14.5833,120.9833,16,28.62,21.8,35.5,19.5,37.2,32803.2,1009.96,0.0,0.0,7.04,8.92,1,83,0,119,14,100.0
Manuel Antonio National Park,Costa Rica,78762,10.0,-84.2167,920,22.69,17.1,32.0,10.0,39.6,12557.9,1011.39,4266.0,6.37,9.52,10.0,9,38,0,0,14,100.0
Maputo,Mozambique,67341,-25.9167,32.5667,39,23.65,10.8,33.7,6.7,44.2,9705.6,1017.12,4657.0,8.07,9.02,10.0,2,70,0,1,14,100.0
Marrakesh,Morocco,60230,31.6167,-8.0333,468,20.9,3.6,42.5,-1.5,49.6,2586.0,1016.22,44754.0,8.96,9.86,10.0,3,83,0,25,14,100.0
Marseille,France,07650,43.45,5.2333,6,16.06,-2.2,33.9,-9.5,39.6,7063.5,1015.97,41515.0,8.11,9.01,10.0,4,84,36,0,14,100.0
Maseru,Lesotho,68449,-28.8272,27.9042,1628,14.42,-1.2,27.5,-6.4,33.6,2265.8,1018.85,0.0,,7.41,9.04,11,17,7,0,3,100.0
Matera,Italy,16314,40.6753,16.6561,496,14.74,1.3,33.0,-3.5,39.5,1676.2,1017.72,0.0,,7.31,9.88,9,17,26,0,8,100.0
Maui,United States,91198,20.7667,-156.3333,928,18.17,10.2,25.1,-17.8,30.0,9359.8,1018.32,0.0,,8.29,9.25,7,67,0,0,14,21.7
Maun,Botswana,68032,-19.9833,23.4167,945,23.59,7.8,37.5,0.5,41.4,1677.0,,4795.0,8.77,9.16,10.0,1,17,0,9,7,92.3
Mbabane,Eswatini,68396,-26.5333,31.3,641,19.04,7.8,28.7,3.5,38.0,3516.9,1018.38,0.0,,8.59,9.82,1,17,0,0,3,100.0
Medellín,Colombia,80110,6.2167,-75.6,1490,23.01,16.1,30.6,11.1,33.6,21993.0,1015.89,22304.0,5.05,9.92,10.0,7,74,0,0,13,98.7
Meknes,Morocco,60150,33.8833,-5.5333,576,17.93,2.3,38.8,-10.6,47.0,5856.0,1017.09,39588.0,8.73,9.33,10.0,4,83,12,8,14,100.0
Melbourne,Australia,95873,-37.7164,145.0453,83,13.98,4.6,29.9,-3.5,44.2,5853.2,1016.62,0.0,,7.26,9.34,1,48,4,0,11,26.9
Memphis,United States,72334,35.0333,-89.9833,102,17.67,-4.1,36.2,-17.2,41.1,19915.0,1017.47,0.0,,7.04,9.7,10,84,42,19,14,100.0
Mendoza,Argentina,87509,-34.5833,-68.4,745,15.64,-1.0,34.4,-8.6,42.7,5033.5,1014.15,37906.0,7.46,9.16,10.0,1,82,38,0,14,100.0
Menorca,Spain,08314,39.8667,4.2333,87,17.56,4.5,33.2,-1.1,39.0,7847.7,1016.82,36764.0,7.4,9.21,10.0,5,83,7,0,14,100.0
Miami,United States,72202,25.7833,-80.3167,4,25.71,10.9,34.4,1.7,36.7,25146.0,1017.05,9140.0,7.34,8.37,10.0,4,83,0,54,14,100.0
Milan,Italy,16081,45.46,9.2583,107,14.84,-1.1,29.3,-5.3,34.5,895.2,1016.22,0.0,,7.12,9.36,6,5,5,0,2,100.0
Minneapolis,United States,KMIC0,45.062,-93.3539,265,8.27,-19.2,31.1,-33.9,38.9,0.0,1015.68,0.0,,5.76,9.97,6,0,90,0,14,100.0
Minsk,Belarus,26850,53.9333,27.6333,234,7.69,-13.5,28.6,-27.1,35.8,9823.0,1015.73,25109.0,4.99,6.55,10.0,6,83,96,0,14,100.0
Mombasa,Kenya,63820,-4.0333,39.6167,57,26.96,19.7,34.4,12.4,36.4,14893.5,1013.15,7522.93,8.02,8.4,10.0,9,82,0,53,14,100.0
Monaco,Monaco,07690,43.65,7.2,4,16.61,3.6,29.9,-1.8,37.0,10385.0,1015.15,39537.0,7.72,9.07,10.0,4,84,24,0,14,100.0
Montego Bay,Jamaica,78388,18.5,-77.9167,1,27.31,21.9,34.7,17.0,36.9,15697.0,1013.92,42069.0,8.29,9.86,10.0,1,83,0,60,14,100.0
Monterrey,Mexico,76393,25.8667,-100.2,512,23.16,7.8,39.4,-5.2,45.0,10365.8,1013.73,27745.0,6.25,9.54,10.0,3,82,0,40,14,99.4
Monteverde,Costa Rica,78762,10.0,-84.2167,920,22.69,17.1,32.0,10.0,39.6,12557.9,1011.39,4266.0,6.37,9.52,10.0,9,38,0,0,14,100.0
Montevideo,Uruguay,86580,-34.8333,-56.0,32,16.85,2.9,30.0,-2.0,40.5,15056.0,1015.73,27670.0,6.7,8.96,10.0,1,84,6,0,14,100.0
Montreal,Canada,71612,45.5,-73.58,73,8.27,-18.5,29.6,-29.2,36.6,15415.2,1015.59,0.0,,5.36,9.66,7,80,87,0,14,100.0
Moorea,French Polynesia,91938,-17.55,-149.6167,2,26.63,20.8,32.0,17.9,33.9,21186.0,1013.12,36398.0,7.16,9.62,10.0,4,81,0,11,14,100.0
Moroni,Comoros,67002,-11.5333,43.2667,29,26.8,20.5,33.5,18.2,39.0,6203.6,1013.68,8407.0,6.88,8.88,10.0,7,28,0,22,13,100.0
Moscow,Russia,UUMO0,55.5117,37.5072,173,6.6,-14.8,27.6,-27.0,34.0,2053.6,1014.41,0.0,,5.18,9.79,7,17,31,0,5,100.0
Mostar,Bosnia and Herzegovina,13348,43.35,17.8,108,15.08,-4.2,35.8,-12.0,41.0,5714.6,1014.68,0.0,,7.23,9.97,9,17,51,2,14,100.0
Mumbai,India,43003,19.1167,72.85,8,28.29,17.4,35.5,12.0,41.0,25651.8,1008.75,0.0,,7.0,9.28,1,22,0,64,14,100.0
Munich,Germany,10865,48.1333,11.55,520,10.55,-6.8,28.6,-16.6,36.9,13248.2,1017.29,27032.0,5.28,7.46,10.0,7,84,83,0,14,100.0
Murmansk,Russia,22113,68.9667,33.05,51,1.59,-20.3,24.3,-36.0,32.2,8015.0,1009.78,20531.0,4.03,4.83,10.0,6,83,133,0,14,100.0
Muscat,Oman,41256,23.5833,58.2833,8,28.66,14.2,41.5,3.0,48.6,977.0,1008.47,26481.0,8.07,8.91,10.0,12,55,0,98,14,100.0
Nadi,Fiji,91680,-17.75,177.45,13,25.67,17.7,32.8,13.0,36.0,30437.0,1011.49,32338.0,6.72,9.37,10.0,2,84,0,2,14,100.0
Nafplio,Greece,16718,38.0667,23.55,44,18.76,3.9,36.8,-2.0,44.8,1291.1,1014.39,0.0,,7.92,9.97,10,17,17,27,14,100.0
Nagasaki,Japan,47805,33.35,129.55,58,17.74,4.1,31.3,-1.8,34.6,9391.5,1015.86,0.0,,7.78,9.94,9,26,23,0,14,100.0
Nagoya,Japan,47636,35.1667,136.9667,51,16.6,-0.7,35.9,-5.2,40.3,23324.0,1014.78,30984.0,6.06,8.54,10.0,5,83,48,16,14,100.0
Nairobi,Kenya,63741,-1.3,36.75,1798,18.58,10.9,28.3,7.0,30.5,9765.0,1016.6,3628.0,6.7,8.81,10.0,11,57,0,0,14,100.0
Namibia,Namibia,68110,-22.5667,17.1,1728,21.01,5.5,36.7,-3.9,40.7,5338.0,1016.1,15315.0,8.68,9.32,10.0,2,76,0,1,14,98.8
Nantes,France,07222,47.1667,-1.6,27,12.88,-0.8,29.4,-8.4,42.0,11181.0,1017.2,28859.0,5.64,8.22,10.0,6,84,62,0,14,100.0
Naples,Italy,16289,40.85,14.3,88,17.45,2.4,32.3,-16.0,38.0,2075.2,1015.91,3241.75,7.09,8.1,10.0,6,9,21,1,14,100.0
Nashville,United States,72327,36.1167,-86.6833,183,16.32,-6.2,34.4,-18.2,42.8,18691.0,1017.96,0.0,,6.99,9.74,9,84,47,4,14,100.0
Nelson,New Zealand,NZNS0,-41.2983,173.221,5,13.94,3.5,22.9,-0.7,27.8,4350.2,1015.07,0.0,,7.04,9.09,1,17,7,0,4,100.0
New Orleans,United States,KVSH0,29.9527,-90.0827,9,21.63,10.8,35.5,-3.3,38.4,1873.1,1016.89,0.0,,8.15,9.79,4,9,0,9,5,100.0
New York,United States,KJRB0,40.7012,-74.009,2,13.73,-6.2,31.6,-16.1,36.1,500.3,1018.58,0.0,,7.06,9.97,9,2,35,0,8,100.0
New York City,United States,KJRB0,40.7012,-74.009,2,13.73,-6.2,31.6,-16.1,36.1,500.3,1018.58,0.0,,7.06,9.97,9,2,35,0,8,100.0
Niagara Falls,Canada,KIAG0,43.1073,-78.9462,180,9.74,-16.0,29.8,-24.0,35.6,0.0,1016.46,0.0,,6.24,9.97,8,0,84,0,14,100.0
Nicosia,Cyprus,17609,34.8833,33.6333,2,20.68,5.8,35.7,-0.1,40.6,4984.5,1012.83,44616.0,8.99,9.63,10.0,3,83,0,24,14,100.0
Noumea,New Caledonia,91592,-22.2667,166.45,69,23.5,16.7,31.7,14.1,36.1,15661.0,1013.73,21883.0,6.48,9.57,10.0,1,84,0,0,14,100.0
Nukuʻalofa,Tonga,91792,-21.2333,-175.15,38,24.2,17.7,30.4,11.0,33.0,5471.3,1013.99,0.0,,9.1,10.0,6,17,0,0,13,100.0
Nuremberg,Germany,10763,49.5,11.05,318,10.21,-7.9,28.6,-20.7,38.4,8489.5,1017.16,25988.35,5.08,7.39,10.0,6,84,85,0,14,100.0
Nuuk,Greenland,04250,64.1667,-51.75,80,-0.53,-16.2,14.6,-22.5,23.1,13793.9,1006.84,136.45,0.3,2.92,6.52,7,70,167,0,14,100.0
Nuwara Eliya,Sri Lanka,43473,6.9667,80.7667,1880,16.3,8.4,24.0,2.7,29.8,26495.0,1014.39,0.0,,7.5,8.49,4,84,0,0,14,98.8
Oaxaca,Mexico,76775,17.0667,-96.7167,1550,20.92,5.6,34.9,1.0,39.1,11365.1,1013.78,25749.0,7.43,9.73,10.0,2,81,0,0,14,98.8
Oaxaca City,Mexico,76775,17.0667,-96.7167,1550,20.92,5.6,34.9,1.0,39.1,11365.1,1013.78,25749.0,7.43,9.73,10.0,2,81,0,0,14,98.8
Odessa,Ukraine,33837,46.4333,30.7667,42,12.03,-8.5,31.0,-20.5,38.0,6742.7,1016.59,32039.0,6.32,7.61,10.0,5,84,78,0,14,100.0
Ohrid,North Macedonia,13578,41.1167,20.8,760,11.74,-5.0,30.4,-12.4,36.0,2367.3,1017.22,0.0,,6.71,9.94,8,17,32,0,7,100.0
Orlando,United States,KORL0,28.5455,-81.3329,34,23.1,5.3,34.7,-2.2,36.7,0.0,1018.04,0.0,,8.85,10.0,3,0,0,12,14,100.0
Osaka,Japan,47772,34.6833,135.5167,23,17.28,1.0,35.7,-3.5,38.9,20622.5,1015.24,30372.0,5.94,8.67,10.0,5,84,46,18,14,100.0
Oslo,Norway,01492,59.95,10.7167,94,7.24,-12.1,29.0,-20.5,34.6,12286.0,1011.66,17969.0,5.08,6.12,10.0,6,84,99,0,14,100.0
Ottawa,Canada,71063,45.38,-75.72,79,7.04,-21.7,30.1,-32.5,36.4,12287.0,1015.25,0.0,,5.15,9.71,7,83,93,0,14,100.0
Pago Pago,American Samoa,91765,-14.3333,-170.7167,3,27.76,23.9,32.5,19.1,34.8,47341.0,1010.49,561.0,6.11,6.9,9.22,5,83,0,49,14,100.0
Palermo,Italy,16405,38.1833,13.1,21,18.98,7.7,31.7,4.0,43.9,1118.9,1015.5,3757.92,8.22,8.54,10.0,9,9,0,2,14,100.0
Panama City,Panama,78792,9.05,-79.3667,45,27.01,20.9,34.4,17.0,37.0,4355.3,1010.29,0.0,,8.35,8.92,12,9,0,20,14,100.0
Papeete,French Polynesia,91938,-17.55,-149.6167,2,26.63,20.8,32.0,17.9,33.9,21186.0,1013.12,36398.0,7.16,9.62,10.0,4,81,0,11,14,100.0
Paramaribo,Suriname,81225,5.45,-55.2,15,26.44,21.0,37.1,18.8,38.8,31965.8,1012.28,0.0,,7.7,8.66,2,80,0,5,14,100.0
Paris,France,07156,48.8167,2.3333,75,13.01,0.0,28.8,-8.3,40.4,0.0,1016.71,0.0,,7.28,9.97,7,0,58,0,14,100.0
Perth,Australia,94608,-31.9,115.9,25,18.63,5.2,34.5,-0.6,44.4,9491.4,1016.62,0.0,,8.33,9.96,12,79,0,0,14,38.7
Petra,Jordan,40310,30.1667,35.7833,1069,18.94,0.5,38.2,-6.0,43.5,611.0,,43736.0,9.21,9.49,10.0,3,71,23,11,14,98.2
Philadelphia,United States,72408,39.8667,-75.2333,6,14.22,-8.0,33.3,-16.6,39.4,16693.0,1017.12,0.0,,6.65,9.7,9,84,62,0,14,100.0
Phnom Penh,Cambodia,48991,11.55,104.85,10,28.57,20.4,37.5,3.0,40.0,12423.8,1008.67,14608.0,6.97,8.45,10.0,1,46,0,107,14,100.0
Phoenix,United States,72278,33.4333,-112.05,345,24.64,5.7,45.9,-1.6,48.3,2305.0,1011.33,0.0,,7.72,9.94,11,80,0,64,14,100.0
Piran,Slovenia,13105,45.5167,13.5667,95,14.5,-2.2,32.1,-5.7,37.0,3213.3,1016.29,0.0,,7.41,10.0,6,17,52,0,14,100.0
Pisa,Italy,16158,43.6833,10.3833,2,15.33,-0.4,33.0,-7.4,38.5,12642.5,1015.68,34172.0,6.67,8.61,10.0,6,84,45,0,14,100.0
Pittsburgh,United States,72520,40.4833,-80.0667,367,11.51,-12.9,30.9,-23.2,36.7,14670.0,1017.78,0.0,,6.3,9.66,8,83,72,0,14,100.0
Playa del Carmen,Mexico,76648,20.5333,-86.9333,5,26.67,18.7,35.2,12.1,39.7,2815.2,1014.7,0.0,,8.4,9.7,1,17,0,18,7,100.0
Plitvice Lakes,Croatia,14431,44.1,15.35,82,14.92,-3.0,33.3,-10.0,38.0,2215.7,1015.92,0.0,,7.47,9.97,6,9,54,0,14,100.0
Plovdiv,Bulgaria,15625,42.1333,24.75,179,13.69,-8.1,34.6,-18.0,41.0,796.9,1016.06,0.0,,7.15,10.0,6,9,63,0,14,100.0
Podgorica,Montenegro,13463,42.4333,19.2833,49,16.98,-1.6,37.9,-7.6,44.0,24016.0,1015.96,30765.0,6.51,8.2,10.0,5,82,40,20,14,100.0
Pokhara,Nepal,44454,27.7,85.3667,1337,18.94,1.6,31.9,-4.2,35.2,19077.4,1015.08,13542.0,5.72,8.69,10.0,3,70,2,0,14,99.4
Port Douglas,Australia,94285,-16.4,145.6,3,25.26,20.1,35.0,17.8,38.8,26968.4,1012.13,0.0,,7.99,9.65,8,75,0,0,14,22.4
Port Louis,Mauritius,61995,-20.3,57.5,423,21.85,15.2,29.3,10.9,31.4,28295.0,1017.33,36495.0,7.18,9.84,10.0,3,84,0,0,14,100.0
Port Vila,Vanuatu,91557,-17.7,168.3,20,24.86,16.5,33.5,11.5,38.4,29484.8,1011.46,0.0,,8.26,9.91,6,76,0,1,14,100.0
Port of Spain,Trinidad and Tobago,78970,10.6167,-61.35,12,27.07,21.1,34.7,18.0,36.5,25639.0,1012.92,31581.68,7.69,9.26,10.0,1,84,0,14,14,100.0
Portland,United States,72698,45.5833,-122.6,8,13.0,-2.2,30.8,-11.6,46.7,13463.0,1017.77,0.0,,6.85,9.93,8,84,67,0,14,100.0
Porto,Portugal,08546,41.1333,-8.6,93,15.34,5.4,28.8,-1.7,40.3,3674.7,1018.54,0.0,,7.8,10.0,7,17,4,0,7,84.4
Prague,Czech Republic,11520,50.0167,14.45,304,10.29,-7.5,29.8,-20.7,39.6,8217.0,1016.95,24642.0,4.81,7.36,10.0,6,83,85,0,14,100.0
Praia,Cape Verde,08589,14.9,-23.5167,27,25.1,19.3,32.3,10.5,39.9,613.8,1013.99,0.0,,9.03,10.0,1,11,0,1,13,100.0
Pretoria,South Africa,68262,-25.7333,28.1833,1330,19.32,2.9,33.4,-1.0,38.8,2166.0,1017.97,3831.0,8.44,8.98,10.0,1,24,0,0,11,100.0
Pristina,Kosovo,13489,42.55,21.9167,433,12.39,-4.5,32.1,-35.7,38.5,1388.9,1017.41,0.0,,6.94,9.94,7,9,31,0,6,100.0
Puebla,Mexico,76685,19.05,-98.1667,2179,17.26,3.8,30.8,-3.3,33.8,13340.7,1010.18,34220.0,7.67,9.59,10.0,3,82,0,0,14,100.0
Puerto Vallarta,Mexico,76556,21.5167,-104.9,922,22.6,8.7,34.4,4.0,37.6,16687.0,1011.49,39415.0,7.86,9.88,10.0,1,84,0,0,14,100.0
Puglia,Italy,16270,41.1333,16.7833,34,16.83,2.3,32.8,-3.1,44.0,195.4,1015.47,3466.4,7.58,8.06,10.0,9,9,29,1,14,100.0
Punta del Este,Uruguay,SULS0,-34.8667,-55.1,30,16.69,5.7,30.1,-1.0,41.0,2731.7,1015.66,0.0,,8.17,10.0,3,17,1,0,13,100.0
Quebec City,Canada,71578,46.84,-71.2,10,6.85,-18.9,28.9,-30.1,38.6,15373.3,1015.02,0.0,,5.0,9.67,7,80,48,0,14,53.8
Queenstown,New Zealand,93831,-45.0167,168.7333,354,10.36,0.2,24.1,-4.8,29.9,2102.3,1013.24,0.0,,6.35,8.53,1,9,30,0,6,100.0
Quito,Ecuador,84088,-0.3667,-78.55,3058,12.3,3.6,21.1,0.1,24.2,20932.8,1016.84,21669.0,4.86,7.8,9.74,8,82,1,0,14,95.2
Québec City,Canada,71578,46.84,-71.2,10,6.85,-18.9,28.9,-30.1,38.6,15373.3,1015.02,0.0,,5.0,9.67,7,80,48,0,14,53.8
Rabat,Morocco,60135,34.05,-6.7667,84,17.49,2.8,30.9,-1.0,46.3,7014.5,1017.45,37659.0,7.88,9.45,10.0,4,81,1,0,14,100.0
Raja Ampat,Indonesia,97502,-0.9333,131.1167,3,27.11,23.1,32.9,20.0,34.5,44491.0,1009.01,28163.0,5.55,8.77,10.0,2,84,0,7,14,100.0
Raleigh,United States,72306,35.9,-78.7667,133,16.61,-4.0,35.2,-15.5,40.6,17160.0,1017.84,0.0,,7.17,9.65,9,84,47,2,14,100.0
Rapa Nui,Chile,85469,-27.15,-109.4167,51,20.57,14.3,28.3,7.7,29.7,11509.0,1021.61,27894.0,6.57,9.79,10.0,1,81,0,0,14,100.0
Rarotonga,Cook Islands,91843,-21.2,-159.8167,7,24.75,18.0,31.6,11.9,34.9,21728.2,1014.0,5911.0,6.48,8.76,10.0,2,76,0,0,14,100.0
Rennes,France,07130,48.0667,-1.7333,37,12.29,-0.7,28.1,-8.6,40.5,9497.0,1017.05,26422.0,5.17,8.09,10.0,6,83,66,0,14,100.0
Reykjavik,Iceland,04030,64.1333,-21.9,54,5.38,-6.7,17.0,-15.2,23.5,12669.0,1005.15,18775.0,3.71,5.74,9.75,6,82,133,0,14,100.0
Reykjavík,Iceland,04030,64.1333,-21.9,54,5.38,-6.7,17.0,-15.2,23.5,12669.0,1005.15,18775.0,3.71,5.74,9.75,6,82,133,0,14,100.0
Richmond,United States,72401,37.5167,-77.3167,51,15.69,-6.1,34.9,-19.3,40.6,16468.0,1017.94,0.0,,6.99,9.8,5,82,57,3,14,100.0
Rijeka,Croatia,13116,45.2167,14.5833,85,17.37,2.8,31.7,-4.0,37.0,5536.0,1016.04,0.0,,7.6,9.82,9,17,13,0,8,100.0
Rio de Janeiro,Brazil,83755,-22.9,-43.1667,3,24.38,16.8,34.0,13.3,38.0,1391.0,1015.05,0.0,,9.17,10.0,8,9,0,4,9,100.0
Rochester,United States,72529,43.1167,-77.6833,170,9.93,-15.7,30.3,-24.3,36.7,12493.0,1016.56,0.0,,5.94,9.68,7,84,81,0,14,100.0
Rome,Italy,16239,41.7833,12.5833,129,17.12,2.1,34.0,-3.6,40.0,1108.0,1015.62,0.0,,7.95,10.0,6,10,20,0,14,100.0
Ronda,Spain,08397,37.15,-5.6167,87,18.92,0.7,40.2,-4.2,46.0,6610.5,1017.15,43712.0,8.54,9.5,10.0,4,83,5,16,14,100.0
Rosario,Argentina,87480,-32.9167,-60.7833,25,18.05,1.8,34.5,-8.4,40.6,13758.0,1014.9,36286.0,7.33,9.44,10.0,1,83,9,0,14,100.0
Roseau,Dominica,78922,14.7667,-60.8833,33,27.21,23.3,32.4,21.6,34.3,6346.9,1014.27,0.0,,7.93,9.25,1,31,0,16,7,100.0
Rostock,Germany,10170,54.1833,12.0833,4,10.11,-5.8,26.0,-16.0,38.4,8683.1,1014.79,25537.0,5.11,7.4,10.0,6,84,86,0,14,100.0
Rotorua,New Zealand,93186,-37.6667,176.2,4,15.91,5.1,25.5,0.8,30.5,5359.5,1016.36,0.0,,7.5,9.48,1,17,0,0,4,100.0
Rovaniemi,Finland,02847,66.5,25.7167,85,2.48,-20.5,26.5,-30.1,32.0,779.5,1010.29,0.0,,4.18,9.79,7,9,104,0,14,100.0
Saaremaa Island,Estonia,EEKE0,58.2299,22.5095,4,8.17,-8.6,24.8,-21.0,29.0,1446.0,1012.25,0.0,,5.7,9.59,7,17,28,0,4,100.0
Saint-Denis,Réunion,61980,-20.8833,55.5167,21,24.53,17.6,32.0,13.7,34.5,20954.0,1016.52,35531.0,6.95,9.76,10.0,4,82,0,0,14,100.0
Sal,Cape Verde,08594,16.7333,-22.95,54,24.12,16.4,32.4,10.6,39.2,1324.1,1014.64,0.0,,9.24,9.97,4,66,0,2,14,100.0
Salalah,Oman,41316,17.0333,54.0833,20,26.73,18.5,34.2,14.1,45.5,1576.0,1009.19,19631.0,7.97,9.2,10.0,1,80,0,43,14,100.0
Salento,Colombia,80211,4.5,-75.7167,1204,22.47,15.9,32.4,11.4,35.0,27349.0,1015.6,11240.0,4.99,9.36,10.0,7,75,0,0,13,97.4
Salt Lake City,United States,72572,40.7833,-111.9667,1288,12.81,-10.9,37.6,-21.0,41.7,5375.0,1015.32,0.0,,6.48,9.92,6,84,73,9,14,100.0
Salta,Argentina,87046,-24.3833,-65.0833,921,19.31,3.7,33.8,-5.6,42.4,9309.5,1015.53,32012.0,6.5,9.69,10.0,1,83,0,0,14,100.0
Salvador da Bahia,Brazil,83288,-13.2667,-43.4167,440,27.05,17.1,38.1,13.9,40.9,9202.8,1011.63,34380.0,8.56,9.56,10.0,1,84,0,44,14,98.2
Salzburg,Austria,11150,47.8,13.0,430,9.98,-9.7,28.1,-20.8,37.2,21230.0,1017.35,26630.0,5.21,7.15,10.0,7,82,86,0,14,100.0
Samarkand,Uzbekistan,38696,39.5667,66.95,724,15.21,-6.6,36.9,-19.8,42.0,4982.0,1015.72,39108.0,7.68,8.4,10.0,4,84,62,7,14,100.0
San Andrés,Colombia,80001,12.5833,-81.7167,1,27.94,24.3,32.6,19.5,34.8,24928.8,1011.77,35486.0,7.2,9.3,10.0,2,84,0,81,14,100.0
San Antonio,United States,KSKF0,29.3842,-98.5812,210,21.12,1.9,39.1,-12.3,41.4,0.0,1015.47,0.0,,8.24,10.0,10,0,8,36,14,100.0
San Carlos de Bariloche,Argentina,87765,-41.15,-71.1667,845,8.76,-3.3,26.4,-25.4,35.4,10228.5,1015.57,12179.0,7.16,6.37,10.0,1,84,99,0,14,100.0
San Cristobal,Venezuela,80447,7.85,-72.45,377,26.61,19.7,36.1,0.0,39.7,8409.1,1009.29,13928.0,5.51,9.37,10.0,1,54,0,21,11,99.1
San Cristóbal de las Casas,Mexico,76845,16.7333,-92.6333,2276,15.88,4.3,27.0,-2.4,30.4,15702.6,1014.59,30159.0,6.37,9.36,10.0,2,84,0,0,14,100.0
San Diego,United States,72290,32.7333,-117.1833,5,18.36,7.3,28.5,3.3,38.3,3399.0,1015.77,0.0,,8.69,10.0,8,82,0,0,14,100.0
San Francisco,United States,72493,37.7167,-122.2333,2,14.52,1.6,26.7,-7.7,50.0,5692.7,1016.79,0.0,,7.59,9.46,9,80,10,0,14,100.0
San Jose,United States,KSJC0,37.3627,-121.9291,19,15.69,2.4,29.2,-0.6,42.8,2.3,1016.49,0.0,,8.11,10.0,8,1,6,0,14,99.4
San José,Costa Rica,78762,10.0,-84.2167,920,22.69,17.1,32.0,10.0,39.6,12557.9,1011.39,4266.0,6.37,9.52,10.0,9,38,0,0,14,100.0
San Juan,Puerto Rico,78526,18.4333,-66.0,3,27.47,21.8,33.5,19.4,35.6,22965.0,1015.58,0.0,,7.68,8.82,3,83,0,65,14,100.0
San Marino,San Marino,16149,44.0333,12.6167,12,14.9,-0.3,31.3,-4.6,39.1,5699.5,1015.64,0.0,,7.34,9.88,7,50,52,0,14,100.0
San Pedro de Atacama,Chile,85432,-22.5,-68.9,0,14.77,-0.5,35.7,-5.0,41.0,39.6,1025.21,0.0,,7.83,9.94,10,9,0,0,11,100.0
San Salvador,El Salvador,78663,13.7,-89.1167,616,25.66,18.1,32.4,14.8,38.0,4252.9,1014.07,0.0,,8.78,9.7,12,17,0,3,14,100.0
San Sebastián,Spain,08027,43.3,-2.05,258,14.1,1.5,24.8,-5.3,39.7,23063.0,1018.21,26218.0,5.13,8.27,10.0,7,84,31,0,14,100.0
Santa Cruz,Bolivia,85247,-17.8,-60.7333,284,26.2,12.6,39.4,-1.0,44.1,14635.9,1013.7,0.0,,8.23,9.97,7,79,0,38,14,96.9
Santa Cruz de la Sierra,Bolivia,85245,-17.8,-63.1833,418,24.83,13.7,35.3,2.7,40.2,20677.5,1011.01,0.0,,8.38,9.91,6,83,0,11,14,98.8
Santa Marta,Colombia,80009,11.1333,-74.2333,4,28.98,21.8,35.5,19.8,38.6,8663.0,1009.84,35137.0,7.55,9.57,10.0,1,83,0,144,14,96.4
Santiago de Chile,Chile,85577,-33.4333,-70.6833,520,15.04,1.3,33.3,-3.0,38.3,2780.5,1016.57,34436.0,7.37,8.91,10.0,1,78,33,0,14,100.0
Santo Domingo,Dominican Republic,78486,18.4333,-69.8833,14,27.19,21.0,34.3,13.3,37.7,18818.0,1015.31,0.0,,7.86,9.4,12,78,0,45,14,98.2
Sao Paulo,Brazil,83779,-23.5167,-46.6333,722,21.13,10.1,31.2,3.8,36.8,6394.5,1016.97,0.0,,9.07,9.97,4,50,0,0,10,99.0
Sapa,Vietnam,48806,21.3333,103.9,0,21.92,9.1,33.8,2.4,38.0,19409.5,1011.35,26723.0,5.86,9.52,10.0,3,82,0,0,14,100.0
Sapporo,Japan,47412,43.05,141.3333,17,9.71,-8.2,30.9,-14.9,36.3,16456.0,1012.55,25396.0,4.97,7.02,10.0,6,83,84,0,14,100.0
Sarajevo,Bosnia and Herzegovina,14654,43.8667,18.4333,630,11.15,-8.6,32.4,-22.2,38.5,13057.0,1016.52,27407.0,5.38,7.52,10.0,7,84,78,0,14,100.0
Sardinia,Italy,16550,39.9333,9.7167,138,18.04,5.2,34.1,0.8,45.4,5626.0,1014.91,36166.0,7.38,9.34,10.0,7,81,7,0,14,100.0
Savannah,United States,72207,32.1167,-81.0333,16,20.2,-0.3,36.0,-7.7,38.9,16400.0,1018.01,0.0,,7.79,9.78,5,83,10,21,14,100.0
Savusavu,Fiji,91652,-16.1333,-179.9833,62,26.3,21.3,32.7,16.5,34.0,26546.4,1011.82,0.0,,7.79,9.33,8,62,0,6,14,100.0
Seattle,United States,KBFI0,47.53,-122.302,6,12.21,-0.4,28.2,-9.4,39.4,0.0,1017.27,0.0,,7.06,9.88,8,0,69,0,14,99.4
Sedona,United States,KSEZ0,34.8486,-111.7884,1472,16.59,1.2,37.4,-12.0,43.0,1504.7,1018.91,0.0,,7.63,9.94,9,17,40,6,14,100.0
Seoul,South Korea,47108,37.5667,126.9667,86,13.07,-10.5,33.3,-18.6,39.6,19362.0,1016.32,32999.0,6.46,7.87,10.0,6,84,69,2,14,100.0
Seville,Spain,08391,37.4167,-5.9,34,19.7,1.8,39.4,-2.0,45.9,6291.5,1017.12,44848.0,8.87,9.59,10.0,4,84,1,23,14,100.0
Seychelles,Seychelles,63980,-4.6667,55.5167,3,27.56,23.3,32.5,19.6,34.8,33172.0,1011.25,33996.0,6.98,9.14,10.0,5,84,0,44,14,100.0
Shanghai,China,58367,31.1667,121.4333,7,17.97,-1.4,37.3,-7.0,42.0,1945.1,1016.0,0.0,,7.63,10.0,5,9,44,25,14,100.0
Sibiu,Romania,15260,45.8,24.15,443,10.32,-14.4,32.0,-29.0,38.9,8611.0,1017.36,26326.0,5.14,7.37,10.0,6,84,80,0,14,100.0
Sicily,Italy,16450,37.5667,14.2833,940,14.38,0.6,33.6,-8.0,41.4,8157.9,1017.08,0.0,,7.18,10.0,7,78,55,1,14,98.2
Sidi Bou Said,Tunisia,60715,36.8333,10.2333,3,20.18,6.4,39.5,0.8,49.0,6281.5,1016.5,40311.0,8.12,9.6,10.0,4,81,0,22,14,100.0
Siem Reap,Cambodia,48966,13.3667,103.85,15,27.93,19.5,36.8,3.0,44.0,2495.9,1008.69,0.0,,8.06,9.31,1,9,0,34,9,100.0
Siena,Italy,16172,43.4667,11.85,248,14.08,-2.0,34.8,-6.6,39.0,2300.3,1016.55,0.0,,7.29,10.0,8,17,41,0,11,100.0
Sighisoara,Romania,15189,46.2333,24.5667,318,10.3,-5.8,30.2,-21.9,36.2,1809.6,1017.26,0.0,,6.39,9.91,8,17,46,0,8,100.0
Singapore,Singapore,48694,1.3667,103.9167,18,28.45,24.2,34.0,22.0,36.0,3818.3,1009.44,0.0,,7.81,8.68,1,9,0,53,7,100.0
Sintra,Portugal,LPCS0,38.725,-9.3552,99,17.11,8.0,29.5,1.0,40.0,1795.5,1018.4,0.0,,8.25,9.79,8,17,0,0,3,100.0
Siwa Oasis,Egypt,62417,29.2,25.3167,-15,22.85,5.1,40.5,-1.4,46.2,98.3,1015.17,23216.0,10.44,8.98,10.0,1,35,0,51,13,100.0
Sofia,Bulgaria,15614,42.65,23.3833,586,11.27,-9.4,32.0,-20.0,38.6,9156.0,1016.85,32407.0,6.33,7.72,10.0,6,83,77,0,14,100.0
Split,Croatia,14445,43.5167,16.4333,122,17.4,2.0,33.8,-7.2,38.5,11617.0,1014.93,37557.0,7.33,8.96,10.0,5,84,27,9,14,100.0
St Ives,United Kingdom,03808,50.2167,-5.3167,87,11.41,1.9,22.2,-5.2,30.4,15443.0,1015.69,21250.0,4.15,7.57,10.0,6,83,73,0,14,100.0
St Petersburg,Russia,26063,59.9667,30.3,4,6.84,-14.7,29.0,-26.8,37.1,9859.0,1013.38,22039.0,4.3,6.18,10.0,7,81,99,0,14,100.0
St. Louis,United States,KCPS0,38.5707,-90.1562,126,13.83,-8.3,36.2,-24.4,41.7,0.0,1017.16,0.0,,7.03,9.91,5,0,66,1,14,100.0
Stockholm,Sweden,02464,59.35,17.95,14,7.67,-10.9,27.0,-19.6,32.7,671.0,1012.26,0.0,,5.68,9.94,7,9,100,0,14,100.0
Stone Town,Tanzania,63870,-6.2167,39.2167,15,27.13,21.2,34.5,2.0,39.0,2700.6,1013.19,3392.38,8.64,8.52,10.0,9,12,0,45,14,99.4
Strasbourg,France,07190,48.55,7.6333,153,11.76,-4.7,30.5,-18.4,38.9,8722.0,1017.36,25916.0,5.06,7.73,10.0,6,83,74,0,14,100.0
Sucre,Bolivia,85283,-19.0167,-65.3,2904,14.94,3.7,24.7,-1.8,31.6,4159.1,1012.57,9340.0,7.62,8.7,10.0,8,39,0,0,8,94.9
Surabaya,Indonesia,96933,-7.2167,112.7167,3,28.73,22.6,36.4,20.2,37.9,26862.5,1009.82,29479.0,5.79,8.82,10.0,8,84,0,131,14,100.0
Suva,Fiji,91683,-18.05,178.5667,5,25.23,18.0,32.2,13.5,35.0,42561.0,1012.19,0.0,,7.76,9.65,8,82,0,0,14,100.0
Suzhou,China,58367,31.1667,121.4333,7,17.97,-1.4,37.3,-7.0,42.0,1945.1,1016.0,0.0,,7.63,10.0,5,9,44,25,14,100.0
Svalbard,Norway,01008,78.25,15.4667,2,4.94,-19.7,26.2,-31.5,31.2,15884.4,1009.41,8041.0,4.34,4.89,10.0,3,43,111,0,14,100.0
Sydney,Australia,94767,-33.9,151.2,6,19.11,7.9,30.6,3.2,46.4,15576.5,1017.16,32973.0,7.23,9.6,10.0,1,83,0,0,14,100.0
Tahiti,French Polynesia,91938,-17.55,-149.6167,2,26.63,20.8,32.0,17.9,33.9,21186.0,1013.12,36398.0,7.16,9.62,10.0,4,81,0,11,14,100.0
Taipei,Taiwan,46696,25.0667,121.55,6,23.62,11.6,36.2,4.0,38.0,6313.7,1013.27,0.0,,8.45,10.0,11,17,0,48,14,100.0
Takayama,Japan,47617,36.15,137.25,560,11.8,-6.0,33.3,-13.6,37.0,13195.4,1016.44,0.0,,6.27,9.97,7,44,75,0,14,100.0
Tallinn,Estonia,EETN0,59.4133,24.8328,40,6.71,-14.6,25.0,-27.0,33.7,1341.6,1012.73,0.0,,5.37,9.85,7,17,102,0,14,100.0
Tampa,United States,KTPF0,27.9156,-82.4493,2,23.56,11.2,35.5,-1.3,38.0,4535.8,1017.64,0.0,,8.62,10.0,10,17,0,17,12,100.0
Taormina,Italy,16422,38.0667,15.65,11,19.66,5.9,34.0,2.7,43.0,733.1,1016.17,553.88,6.01,8.32,10.0,10,9,1,4,11,100.0
Tartu,Estonia,26242,58.3,26.7333,59,6.68,-17.3,28.3,-32.2,33.6,9399.0,1013.6,24704.0,4.82,6.36,10.0,7,81,100,0,14,100.0
Tashkent,Uzbekistan,38457,41.2667,69.2667,489,15.79,-6.3,39.0,-19.3,43.8,6135.5,1015.82,37707.0,7.36,8.34,10.0,4,83,61,17,14,100.0
Taupo,New Zealand,93245,-38.7333,176.0667,407,12.42,1.3,24.9,-4.5,30.0,2547.2,1016.5,0.0,,6.93,9.1,1,9,23,0,6,100.0
Tehran,Iran,40754,35.6833,51.35,1204,18.75,0.2,39.3,-7.4,42.6,2949.5,1011.03,42183.0,8.34,9.04,10.0,4,83,46,43,14,100.0
Thessaloniki,Greece,16622,40.5167,22.9667,8,17.18,-1.5,34.7,-8.0,40.5,6378.0,1015.77,37141.0,7.25,8.87,10.0,4,84,43,16,14,100.0
Thimphu,Bhutan,42403,26.3333,89.4667,41,25.52,10.5,35.1,5.6,38.6,10252.0,1008.6,0.0,,7.14,9.94,11,17,0,17,5,100.0
Tirana,Albania,13615,41.3333,19.7833,89,16.05,-2.3,35.8,-18.0,41.0,3136.5,1015.51,757.0,4.16,7.72,10.0,5,13,41,0,14,100.0
Tokyo,Japan,47662,35.6833,139.7667,5,16.6,0.6,34.3,-4.0,39.0,23154.0,1013.95,28457.0,5.57,8.58,10.0,5,84,46,9,14,100.0
Toronto,Canada,71508,43.67,-79.4,112,9.97,-15.1,30.3,-25.1,38.2,11237.6,1016.19,7219.0,6.08,6.26,10.0,5,84,84,0,14,100.0
Toulouse,France,07630,43.6333,1.3667,152,14.44,-2.4,33.0,-12.5,42.4,8085.0,1018.05,30337.0,5.93,8.5,10.0,6,81,50,0,14,100.0
Trinidad,Cuba,MUSC0,22.5,-79.95,103,24.17,14.4,34.3,6.0,37.0,2289.3,1016.26,0.0,,9.13,10.0,2,16,0,0,14,100.0
Tromsø,Norway,01026,69.65,18.9333,103,3.61,-9.8,20.3,-18.3,30.1,15379.0,1008.12,17140.0,3.55,5.01,10.0,7,84,134,0,14,100.0
Trondheim,Norway,01257,63.4106,10.4539,127,5.68,-9.8,23.8,-17.1,30.2,2508.2,1010.13,0.0,,5.02,9.13,7,17,99,0,14,100.0
Tucson,United States,72274,32.1333,-110.95,805,21.94,2.3,42.4,-8.2,46.7,3927.0,1012.45,0.0,,7.95,10.0,10,83,2,53,14,100.0
Tulum,Mexico,76647,20.7,-88.2167,22,26.67,14.7,38.9,8.5,41.6,18893.0,1014.99,31177.0,7.71,9.35,10.0,2,84,0,46,14,100.0
Tunis,Tunisia,60715,36.8333,10.2333,3,20.18,6.4,39.5,0.8,49.0,6281.5,1016.5,40311.0,8.12,9.6,10.0,4,81,0,22,14,100.0
Turin,Italy,16061,45.0333,7.7333,709,12.32,-2.2,29.9,-9.0,35.0,10913.2,1016.24,29204.0,5.78,8.01,10.0,7,82,71,0,14,100.0
Tuscany,Italy,16170,43.8,11.2,40,15.85,-0.7,36.0,-7.0,41.0,1825.8,1015.82,2357.12,5.16,7.73,10.0,9,9,43,1,14,100.0
Ubud,Indonesia,97230,-8.75,115.1667,1,27.56,22.8,33.2,19.2,35.5,26945.0,1010.19,39826.0,7.84,9.4,10.0,3,84,0,44,14,100.0
Ulaanbaatar,Mongolia,44292,47.9167,106.8667,1307,0.55,-30.1,28.3,-37.0,38.3,4105.5,1022.33,41248.0,8.12,5.74,10.0,5,78,110,0,14,100.0
Uluru,Australia,94462,-25.2,131.0,493,22.67,1.0,42.4,-3.5,47.1,3123.6,1015.02,0.0,,8.27,9.87,4,70,0,10,14,21.6
Ushuaia,Argentina,87938,-54.8,-68.3167,16,6.06,-1.4,15.6,-6.5,26.5,5571.0,999.27,19625.0,3.89,6.21,8.38,11,81,157,0,14,100.0
Utrecht,Netherlands,06260,52.1,5.1833,2,10.88,-4.1,26.8,-18.9,37.5,12191.0,1015.37,25618.0,5.01,7.63,10.0,6,83,81,0,14,100.0
Valdivia,Chile,85766,-39.6167,-73.0833,19,11.26,2.1,28.0,-4.9,38.5,20465.0,1017.93,27612.0,5.48,7.6,10.0,1,83,72,0,14,99.4
Valencia,Spain,08285,39.4833,-0.3833,13,19.0,4.2,32.4,-0.4,44.5,6209.0,1016.99,30015.0,7.64,9.32,10.0,4,81,1,1,14,98.8
Valletta,Malta,16597,35.85,14.4833,91,19.72,7.5,35.2,2.1,42.7,6960.0,1016.23,40608.0,8.24,9.63,10.0,4,83,0,11,14,100.0
Valparaíso,Chile,85574,-33.3833,-70.7833,475,14.98,-0.2,33.2,-4.3,39.3,2025.0,1015.82,33230.0,8.55,8.86,10.0,1,74,34,0,14,100.0
Vancouver,Canada,71201,49.3,-123.12,2,11.48,-0.3,25.5,-10.2,33.8,19973.3,1016.79,0.0,,6.23,9.67,7,81,74,0,14,100.0
Vancouver Island,Canada,AHRPL,49.58,-125.61,354,8.69,,,-12.0,40.5,12328.9,,0.0,,5.0,9.75,8,30,36,0,6,100.0
Varanasi,India,42483,25.3,83.0167,88,25.79,9.8,41.7,5.4,44.9,3503.8,1008.07,0.0,,7.64,9.92,11,17,0,18,3,100.0
Venice,Italy,16105,45.5,12.3333,2,14.46,-2.1,30.8,-4.5,36.0,1419.7,1015.76,440.92,4.79,7.4,9.97,6,9,58,0,14,100.0
Verona,Italy,16090,45.3833,10.8667,67,14.32,-4.1,33.9,-8.0,38.1,4894.6,1015.87,956.03,4.52,7.19,10.0,6,32,60,0,14,100.0
Victoria,Seychelles,63980,-4.6667,55.5167,3,27.56,23.3,32.5,19.6,34.8,33172.0,1011.25,33996.0,6.98,9.14,10.0,5,84,0,44,14,100.0
Vienna,Austria,11035,48.25,16.3667,203,11.62,-5.1,30.2,-15.0,38.5,9313.0,1016.78,29238.0,5.71,7.71,10.0,6,81,76,0,14,100.0
Vientiane,Laos,48940,17.95,102.5667,171,27.16,15.4,38.0,8.0,56.0,21286.0,1008.1,30879.0,6.52,9.18,10.0,1,82,0,75,14,99.4
Vilamoura,Portugal,08554,37.0167,-7.9667,7,18.43,6.4,31.9,0.6,39.9,1541.5,1018.13,1106.0,9.15,8.58,10.0,6,19,0,0,14,100.0
Vilnius,Lithuania,26730,54.6333,25.1,162,7.67,-13.0,28.2,-25.0,34.3,9591.5,1015.51,25499.0,4.98,6.63,10.0,6,84,96,0,14,100.0
Viña del Mar,Chile,85574,-33.3833,-70.7833,475,14.98,-0.2,33.2,-4.3,39.3,2025.0,1015.82,33230.0,8.55,8.86,10.0,1,74,34,0,14,100.0
Vladivostok,Russia,31960,43.1167,131.9333,184,5.4,-18.2,25.6,-33.0,33.1,12813.0,1015.17,28297.0,5.68,6.24,10.0,6,82,98,0,14,100.0
Wadi Rum,Jordan,40199,29.55,34.95,12,26.3,9.2,42.6,5.4,48.9,385.0,1012.14,9257.0,9.48,8.37,10.0,1,65,0,78,14,100.0
Warsaw,Poland,12375,52.1667,20.9667,106,9.69,-11.1,29.7,-23.4,37.0,7987.0,1016.08,24128.0,5.46,7.04,10.0,6,81,87,0,14,100.0
Washington,United States,72405,38.85,-77.0333,5,15.62,-5.8,34.2,-14.9,40.6,15350.0,1017.57,0.0,,6.91,9.78,9,84,57,6,14,100.0
Washington DC,United States,72405,38.85,-77.0333,5,15.62,-5.8,34.2,-14.9,40.6,15350.0,1017.57,0.0,,6.91,9.78,9,84,57,6,14,100.0
Wellington,New Zealand,93436,-41.3333,174.8,12,14.04,5.5,23.5,0.0,29.4,3519.2,1014.31,0.0,,7.51,9.49,1,17,8,0,14,100.0
Whistler,Canada,71175,50.1289,-122.9548,658,7.93,-13.2,24.8,-23.7,32.6,8061.9,1016.86,0.0,,5.41,9.31,7,33,60,0,12,74.6
Windhoek,Namibia,68110,-22.5667,17.1,1728,21.01,5.5,36.7,-3.9,40.7,5338.0,1016.1,15315.0,8.68,9.32,10.0,2,76,0,1,14,98.8
Yamoussoukro,Ivory Coast,65563,6.9,-5.35,196,26.26,15.1,37.9,9.5,40.0,14777.2,1010.9,8789.0,6.17,8.73,10.0,1,74,0,12,14,100.0
Yangon,Myanmar,48097,16.7667,96.1667,14,27.65,15.7,39.9,10.0,42.2,30670.5,1010.06,0.0,,7.36,9.38,1,69,0,58,14,100.0
Yangshuo,China,57957,25.3333,110.3,166,19.85,2.5,36.8,-3.0,40.0,13496.1,1014.21,0.0,,7.7,9.97,10,42,17,28,14,100.0
Yasawa Islands,Fiji,91680,-17.75,177.45,13,25.67,17.7,32.8,13.0,36.0,30437.0,1011.49,32338.0,6.72,9.37,10.0,2,84,0,2,14,100.0
Yellowstone National Park,United States,KP600,44.55,-110.4167,2368,0.29,-20.6,24.6,-40.0,29.4,4277.0,1019.95,0.0,,3.39,7.8,7,38,123,0,13,100.0
Yogyakarta,Indonesia,96839,-6.9833,110.3833,3,28.2,22.7,36.0,19.2,39.5,30981.0,1009.78,35803.0,7.04,9.15,10.0,6,84,0,97,14,100.0
York,United Kingdom,03266,54.05,-1.25,16,10.13,-5.4,24.3,-10.4,35.6,1356.6,1013.57,1612.75,3.31,6.49,10.0,6,9,83,0,14,100.0
Zagreb,Croatia,14236,45.8167,15.9833,157,13.53,-4.8,31.5,-11.6,39.1,12766.2,1016.92,20353.0,5.47,7.64,10.0,6,84,64,0,14,100.0
Zakynthos,Greece,16719,37.75,20.8833,3,19.04,4.1,35.1,-2.0,41.4,11477.8,1015.07,38236.0,8.2,9.12,10.0,4,84,3,23,14,98.2
Zanzibar,Tanzania,63870,-6.2167,39.2167,15,27.13,21.2,34.5,2.0,39.0,2700.6,1013.19,3392.38,8.64,8.52,10.0,9,12,0,45,14,99.4
Zanzibar Town,Tanzania,63870,-6.2167,39.2167,15,27.13,21.2,34.5,2.0,39.0,2700.6,1013.19,3392.38,8.64,8.52,10.0,9,12,0,45,14,99.4
Zermatt,Switzerland,16052,45.9333,7.7,3480,-4.98,-20.3,8.4,-28.8,13.4,2352.7,1019.24,23234.93,5.3,3.26,7.73,7,25,161,0,14,100.0
Zion National Park,United States,KAZC0,36.9599,-113.0139,1486,13.68,-8.5,38.7,-20.0,46.0,1337.9,1019.52,0.0,,6.92,9.94,9,17,39,1,10,100.0
Zurich,Switzerland,06660,47.3833,8.5667,556,10.3,-6.5,27.9,-16.9,35.5,14664.0,1017.66,25430.0,4.97,7.3,10.0,7,84,85,0,14,100.0
